$GPGSV,4,1,14,01,05,018,,06,00,000,,10,16,295,,12,39,236,,1*69
$GPGSV,4,2,14,13,21,160,,15,40,196,,17,44,071,,19,48,102,,1*68
$GPGSV,4,3,14,20,07,262,,23,13,265,,24,75,291,,25,02,240,,1*6A
$GPGSV,4,4,14,28,16,057,,32,02,324,,1*68
$GLGSV,3,1,09,78,66,317,,86,17,019,,77,40,064,,79,21,272,,1*75
$GLGSV,3,2,09,69,35,312,,88,17,132,,87,34,094,,67,09,196,,1*7C
$GLGSV,3,3,09,68,42,241,,1*4E
$GAGSV,2,1,07,01,35,254,,04,37,299,,13,11,118,,15,21,066,,7*7C
$GAGSV,2,2,07,19,45,216,,21,85,340,,27,33,067,,7*45
$GPGSV,4,1,13,10,16,295,28,12,39,236,32,13,21,160,29,15,40,196,38,1*66
$GPGSV,4,2,13,17,44,071,39,19,48,102,31,23,13,265,27,24,75,291,31,1*64
$GPGSV,4,3,13,01,05,018,,20,07,262,,25,02,240,,28,16,057,,1*63
$GPGSV,4,4,13,32,02,324,,1*50
$GLGSV,3,1,09,78,66,317,27,79,21,272,28,69,35,312,30,67,09,196,32,1*71
$GLGSV,3,2,09,68,42,241,32,86,17,019,,77,40,064,,88,17,132,,1*7E
$GLGSV,3,3,09,87,34,094,,1*44
$GAGSV,2,1,07,01,35,254,,04,37,299,,13,11,118,,15,21,066,,7*7C
$GAGSV,2,2,07,19,45,216,,21,85,340,,27,33,067,,7*45
$GPGSV,4,1,13,10,16,295,26,12,39,236,32,13,21,160,29,15,40,196,37,1*67
$GPGSV,4,2,13,17,44,071,36,19,48,102,36,23,13,265,24,24,75,291,34,1*6A
$GPGSV,4,3,13,01,05,018,,20,07,262,,25,02,240,,28,16,057,,1*63
$GPGSV,4,4,13,32,02,324,,1*50
$GLGSV,3,1,09,78,66,317,28,79,21,272,33,69,35,312,30,87,34,094,28,1*7C
$GLGSV,3,2,09,67,09,196,33,68,41,241,32,86,17,019,,77,40,064,,1*7D
$GLGSV,3,3,09,88,17,132,,1*47
$GAGSV,2,1,07,01,35,254,,04,37,299,,13,11,118,,15,21,066,,7*7C
$GAGSV,2,2,07,19,45,216,,21,85,340,,27,33,067,,7*45
$GBGSV,3,1,11,24,23,275,31,29,36,078,39,02,03,106,,05,18,127,,1*74
$GBGSV,3,2,11,08,09,073,,10,18,061,,13,03,095,,14,30,277,,1*74
$GBGSV,3,3,11,21,06,201,,26,72,292,,30,10,029,,1*41
$GPGSV,4,1,13,10,16,295,24,12,39,236,35,13,21,160,28,15,40,196,37,1*63
$GPGSV,4,2,13,17,44,071,36,19,48,102,39,23,13,265,24,24,75,291,31,1*60
$GPGSV,4,3,13,01,05,018,,20,07,262,,25,02,240,,28,16,057,,1*63
$GPGSV,4,4,13,32,02,324,,1*50
$GLGSV,3,1,09,78,66,317,28,79,21,272,34,69,35,312,29,87,34,094,28,1*73
$GLGSV,3,2,09,67,09,196,33,68,41,241,32,86,17,019,,77,40,064,,1*7D
$GLGSV,3,3,09,88,17,132,,1*47
$GAGSV,2,1,07,01,35,254,,04,37,299,,13,11,118,,15,21,066,,7*7C
$GAGSV,2,2,07,19,45,216,,21,85,340,,27,33,067,,7*45
$GBGSV,3,1,11,24,23,275,31,29,36,078,40,02,03,106,,05,18,127,,1*7A
$GBGSV,3,2,11,08,09,073,,10,18,061,,13,03,095,,14,30,277,,1*74
$GBGSV,3,3,11,21,06,201,,26,72,292,,30,10,029,,1*41
$GPGSA,A,1,,,,,,,,,,,,,,,,*32
$GPVTG,,T,,M,,N,,K,N*2C
$GPDTM,,,,,,,,*4A
$GPRMC,,V,,,,,,,,,,N,V*29
$GPGNS,,,,,,N,,,,,,,V*79
$GPGGA,,,,,,0,,,,,,,,*66
$GPGSV,4,1,13,10,16,295,28,12,39,236,38,13,21,160,27,15,40,196,39,1*63
$GPGSV,4,2,13,17,44,071,33,19,48,102,40,23,13,265,24,24,75,291,35,1*6F
$GPGSV,4,3,13,01,05,018,,20,07,262,,25,02,240,,28,16,057,,1*63
$GPGSV,4,4,13,32,02,324,,1*50
$GLGSV,3,1,09,78,66,317,28,77,40,064,24,79,21,272,36,69,35,312,29,1*7E
$GLGSV,3,2,09,88,17,132,26,87,34,094,31,67,09,196,35,68,41,241,34,1*7E
$GLGSV,3,3,09,86,17,019,,1*41
$GAGSV,2,1,07,01,35,254,,04,37,299,,13,11,118,,15,21,066,,7*7C
$GAGSV,2,2,07,19,45,216,,21,85,340,,27,33,067,,7*45
$GBGSV,3,1,11,14,30,277,32,24,23,275,31,26,72,292,31,29,36,078,43,1*78
$GBGSV,3,2,11,02,03,106,,05,18,127,,08,09,073,,10,18,061,,1*73
$GBGSV,3,3,11,13,03,095,,21,06,201,,30,10,029,,1*44
$GPGSV,4,1,13,01,05,018,21,10,16,295,28,12,39,236,39,13,21,160,26,1*69
$GPGSV,4,2,13,15,40,196,39,17,44,071,37,19,48,102,39,23,13,265,22,1*6F
$GPGSV,4,3,13,24,75,291,32,20,07,262,,25,02,240,,28,16,057,,1*61
$GPGSV,4,4,13,32,02,324,,1*50
$GLGSV,3,1,09,78,66,317,30,77,40,064,23,79,21,272,29,69,35,312,30,1*76
$GLGSV,3,2,09,88,17,132,31,87,34,094,36,67,09,196,37,68,41,241,37,1*7E
$GLGSV,3,3,09,86,17,019,,1*41
$GAGSV,2,1,07,01,35,254,,04,37,299,,13,11,118,,15,21,066,,7*7C
$GAGSV,2,2,07,19,45,216,,21,85,340,,27,33,067,,7*45
$GBGSV,3,1,11,14,30,277,36,24,23,275,30,26,72,292,30,29,36,078,41,1*7E
$GBGSV,3,2,11,02,03,106,,05,18,127,,08,09,073,,10,18,061,,1*73
$GBGSV,3,3,11,13,03,095,,21,06,201,,30,10,029,,1*44
$GPGSV,4,1,13,01,05,018,22,10,16,295,29,12,39,236,40,13,21,160,27,1*64
$GPGSV,4,2,13,15,40,196,39,17,44,071,39,19,48,102,41,23,13,265,21,1*6D
$GPGSV,4,3,13,24,75,291,32,20,07,262,,25,02,240,,28,16,057,,1*61
$GPGSV,4,4,13,32,02,324,,1*50
$GLGSV,3,1,09,78,66,317,32,77,40,064,24,79,21,272,28,69,35,312,34,1*76
$GLGSV,3,2,09,88,17,132,31,87,34,094,38,67,09,196,38,68,41,241,37,1*7F
$GLGSV,3,3,09,86,17,019,,1*41
$GAGSV,2,1,07,01,35,254,,04,37,299,,13,11,118,,15,21,066,,7*7C
$GAGSV,2,2,07,19,45,216,,21,85,340,,27,33,067,,7*45
$GBGSV,3,1,11,10,18,061,29,14,30,277,36,24,23,275,28,26,72,292,31,1*76
$GBGSV,3,2,11,29,36,078,38,30,10,029,30,02,03,106,,05,18,127,,1*79
$GBGSV,3,3,11,08,09,073,,13,03,095,,21,06,201,,1*48
$GPGSV,4,1,14,01,05,018,22,10,16,295,32,12,39,236,38,13,21,160,27,1*66
$GPGSV,4,2,14,15,40,196,39,17,44,071,41,19,48,102,41,23,13,265,21,1*65
$GPGSV,4,3,14,24,75,291,33,06,00,000,,20,07,262,,25,02,240,,1*6E
$GPGSV,4,4,14,28,16,057,,32,02,324,,1*68
$GLGSV,3,1,09,78,66,317,29,77,40,064,24,79,21,272,28,69,35,312,26,1*7F
$GLGSV,3,2,09,88,17,132,26,87,34,094,37,67,09,196,37,68,41,241,37,1*79
$GLGSV,3,3,09,86,17,019,,1*41
$GAGSV,2,1,07,01,35,254,,04,37,299,,13,11,118,,15,21,066,,7*7C
$GAGSV,2,2,07,19,45,216,,21,85,340,,27,33,067,,7*45
$GBGSV,3,1,11,10,18,061,29,14,30,277,36,24,23,275,33,26,72,292,31,1*7C
$GBGSV,3,2,11,29,36,078,38,30,10,029,30,02,03,106,,05,18,127,,1*79
$GBGSV,3,3,11,08,09,073,,13,03,095,,21,06,201,,1*48
$GPGSA,A,1,,,,,,,,,,,,,,,,*32
$GPVTG,,T,,M,,N,,K,N*2C
$GPDTM,,,,,,,,*4A
$GPRMC,,V,,,,,,,,,,N,V*29
$GPGNS,,,,,,N,,,,,,,V*79
$GPGGA,,,,,,0,,,,,,,,*66
$GPGSV,4,1,14,01,05,018,23,10,16,295,32,12,39,236,37,13,21,160,27,1*68
$GPGSV,4,2,14,15,40,196,38,17,44,071,40,19,48,102,41,23,13,265,21,1*65
$GPGSV,4,3,14,24,75,291,34,28,16,057,33,06,00,000,,20,07,262,,1*65
$GPGSV,4,4,14,25,02,240,,32,02,324,,1*64
$GLGSV,3,1,09,78,66,317,26,77,40,064,23,79,21,272,24,69,35,312,32,1*7E
$GLGSV,3,2,09,88,17,132,27,87,34,094,39,67,09,196,37,68,41,241,36,1*77
$GLGSV,3,3,09,86,17,019,,1*41
$GAGSV,2,1,07,01,35,254,,04,37,299,,13,11,118,,15,21,066,,7*7C
$GAGSV,2,2,07,19,45,216,,21,85,340,,27,33,067,,7*45
$GBGSV,3,1,10,10,18,061,29,14,30,277,31,24,23,275,28,26,72,292,31,1*70
$GBGSV,3,2,10,29,36,078,40,30,10,029,30,05,18,127,,08,09,073,,1*74
$GBGSV,3,3,10,13,03,095,,21,06,201,,1*7C
$GPGSV,4,1,14,01,05,018,22,10,16,295,26,12,39,236,37,13,21,160,29,1*62
$GPGSV,4,2,14,15,40,196,40,17,44,071,40,19,48,102,39,23,13,265,21,1*65
$GPGSV,4,3,14,24,75,291,32,28,16,057,33,06,00,000,,20,07,262,,1*63
$GPGSV,4,4,14,25,02,240,,32,02,324,,1*64
$GLGSV,3,1,09,78,66,317,28,77,40,064,23,79,21,272,28,69,35,312,29,1*76
$GLGSV,3,2,09,88,17,132,24,87,34,094,36,67,09,196,35,68,41,241,35,1*7A
$GLGSV,3,3,09,86,17,019,,1*41
$GAGSV,2,1,07,01,35,254,,04,37,299,,13,11,118,,15,21,066,,7*7C
$GAGSV,2,2,07,19,45,216,,21,85,340,,27,33,067,,7*45
$GBGSV,3,1,10,10,18,061,29,14,30,277,30,24,23,275,28,26,72,292,31,1*71
$GBGSV,3,2,10,29,36,078,38,30,10,029,30,05,18,127,,08,09,073,,1*7B
$GBGSV,3,3,10,13,03,095,,21,06,201,,1*7C
$GPGSV,4,1,14,01,05,018,22,10,16,295,31,12,39,236,42,13,21,160,29,1*66
$GPGSV,4,2,14,15,40,196,37,17,44,071,36,19,48,102,42,23,13,265,21,1*68
$GPGSV,4,3,14,24,75,291,36,28,16,057,28,06,00,000,,20,07,262,,1*6D
$GPGSV,4,4,14,25,02,240,,32,02,324,,1*64
$GLGSV,3,1,09,78,66,317,33,77,40,064,24,79,21,272,31,69,35,312,33,1*78
$GLGSV,3,2,09,88,17,132,24,87,34,094,32,67,09,196,41,68,41,241,38,1*70
$GLGSV,3,3,09,86,17,019,,1*41
$GAGSV,2,1,07,01,35,254,,04,37,299,,13,11,118,,15,21,066,,7*7C
$GAGSV,2,2,07,19,45,216,,21,85,340,,27,33,067,,7*45
$GBGSV,3,1,10,10,18,061,29,14,30,277,30,24,23,275,30,26,72,292,31,1*78
$GBGSV,3,2,10,29,36,078,37,30,10,029,29,05,18,127,,08,09,073,,1*7C
$GBGSV,3,3,10,13,03,095,,21,06,201,,1*7C
$GPGSV,4,1,13,01,05,018,22,10,16,295,31,12,39,236,42,13,21,160,29,1*61
$GPGSV,4,2,13,15,40,196,41,17,44,071,30,19,48,102,27,23,13,265,21,1*6B
$GPGSV,4,3,13,24,75,291,35,06,00,000,,20,07,262,,25,02,240,,1*6F
$GPGSV,4,4,13,32,02,324,,1*50
$GLGSV,3,1,09,78,66,317,37,77,40,064,23,79,21,272,29,69,35,312,33,1*72
$GLGSV,3,2,09,88,17,132,24,87,34,094,31,67,09,196,40,68,41,241,40,1*7D
$GLGSV,3,3,09,86,17,019,,1*41
$GAGSV,2,1,07,01,35,254,,04,37,299,,13,11,118,,15,21,066,,7*7C
$GAGSV,2,2,07,19,45,216,,21,85,340,,27,33,067,,7*45
$GBGSV,3,1,10,10,18,061,29,14,30,277,32,24,23,275,30,26,72,292,35,1*7E
$GBGSV,3,2,10,29,36,078,26,30,10,029,29,05,18,127,,08,09,073,,1*7C
$GBGSV,3,3,10,13,03,095,,21,06,201,,1*7C
$GPGSA,A,1,,,,,,,,,,,,,,,,*32
$GPVTG,,T,,M,,N,,K,N*2C
$GPDTM,,,,,,,,*4A
$GPRMC,,V,,,,,,,,,,N,V*29
$GPGNS,,,,,,N,,,,,,,V*79
$GPGGA,,,,,,0,,,,,,,,*66
$GPGSV,4,1,14,01,05,018,22,10,16,295,32,12,39,236,42,13,21,160,25,1*69
$GPGSV,4,2,14,15,40,196,41,17,44,071,27,20,07,262,19,23,13,265,21,1*63
$GPGSV,4,3,14,24,75,291,35,06,00,000,,19,48,102,,25,02,240,,1*6C
$GPGSV,4,4,14,28,16,057,,32,02,324,,1*68
$GLGSV,3,1,09,78,66,317,37,77,40,064,23,79,21,272,31,69,35,312,37,1*7F
$GLGSV,3,2,09,88,17,132,24,87,34,094,32,67,09,196,39,68,41,241,37,1*70
$GLGSV,3,3,09,86,17,019,,1*41
$GAGSV,2,1,07,01,35,254,,04,37,299,,13,11,118,,15,21,066,,7*7C
$GAGSV,2,2,07,19,45,216,,21,85,340,,27,33,067,,7*45
$GBGSV,3,1,09,10,18,061,29,14,30,277,34,21,06,201,39,24,23,275,30,1*72
$GBGSV,3,2,09,26,72,292,34,29,36,078,26,30,10,029,29,08,09,073,,1*73
$GBGSV,3,3,09,13,03,095,,1*42
$GPGSV,4,1,14,01,05,018,22,10,16,295,33,12,39,236,39,13,21,160,25,1*64
$GPGSV,4,2,14,15,40,196,39,17,44,071,27,20,07,262,20,23,13,265,20,1*67
$GPGSV,4,3,14,24,75,291,36,06,00,000,,19,48,102,,25,02,240,,1*6F
$GPGSV,4,4,14,28,16,057,,32,02,324,,1*68
$GLGSV,3,1,09,78,66,317,35,77,40,064,23,79,21,272,31,69,35,312,37,1*7D
$GLGSV,3,2,09,88,17,132,24,87,34,094,26,67,09,196,39,68,41,241,39,1*7B
$GLGSV,3,3,09,86,17,019,,1*41
$GAGSV,2,1,07,01,35,254,,04,37,299,,13,11,118,,15,21,066,,7*7C
$GAGSV,2,2,07,19,45,216,,21,85,340,,27,33,067,,7*45
$GBGSV,3,1,09,10,18,061,29,14,30,277,32,21,06,201,40,24,23,275,26,1*7D
$GBGSV,3,2,09,26,72,292,36,29,36,078,25,30,10,029,29,08,09,073,,1*72
$GBGSV,3,3,09,13,03,095,,1*42
$GNGSA,A,3,01,10,12,13,15,17,20,23,24,,,,1.1,0.6,1.0,1*30
$GNGSA,A,3,67,68,69,77,78,79,87,88,,,,,1.1,0.6,1.0,2*3B
$GNVTG,,T,,M,0.0,N,0.0,K,A*3D
$GNDTM,P90,,0000.000026,S,00000.000000,E,0.974,W84*50
$GNRMC,181620.81,A,5009.022220,N,01507.896347,E,0.0,,161120,1.5,E,A,V*73
$GNGNS,181620.81,5009.022220,N,01507.896347,E,AA,17,0.6,190.9,44.7,,,V*29
$GNGGA,181620.81,5009.022220,N,01507.896347,E,1,12,0.6,190.9,M,44.7,M,,*7C
$GPGSV,4,1,14,01,05,018,22,10,16,295,33,12,39,236,43,13,21,160,24,1*68
$GPGSV,4,2,14,15,40,195,41,17,44,071,26,19,48,102,39,20,07,262,20,1*67
$GPGSV,4,3,14,23,13,265,20,24,75,291,37,06,00,000,,25,03,240,,1*68
$GPGSV,4,4,14,28,16,057,,32,02,324,,1*68
$GLGSV,3,1,09,78,66,317,35,77,40,064,20,79,21,272,27,69,35,312,32,1*7C
$GLGSV,3,2,09,88,17,132,24,87,34,094,33,67,09,196,41,68,41,241,39,1*70
$GLGSV,3,3,09,86,16,019,,1*40
$GAGSV,2,1,07,01,35,254,33,04,37,299,26,21,85,343,28,13,12,118,,7*7C
$GAGSV,2,2,07,15,21,066,,19,45,216,,27,33,067,,7*4B
$GBGSV,3,1,10,10,18,061,29,14,30,277,31,21,06,201,39,24,23,275,30,1*7F
$GBGSV,3,2,10,26,72,292,36,29,36,078,30,30,10,029,29,02,03,106,,1*7D
$GBGSV,3,3,10,08,09,073,,13,03,095,,1*7F
$GNGSA,A,3,01,10,12,13,15,17,19,20,23,24,,,1.1,0.6,0.9,1*30
$GNGSA,A,3,67,68,69,78,79,87,88,,,,,,1.1,0.6,0.9,2*33
$GNGSA,A,3,01,04,21,,,,,,,,,,1.1,0.6,0.9,3*3A
$GNVTG,312.1,T,312.1,M,0.4,N,0.8,K,A*31
$GNDTM,P90,,0000.000026,S,00000.000000,E,0.974,W84*50
$GNRMC,181621.00,A,5009.019385,N,01507.883929,E,0.4,312.1,161120,1.5,E,A,V*50
$GNGNS,181621.00,5009.019385,N,01507.883929,E,AAA,20,0.6,196.2,44.7,,,V*69
$GNGGA,181621.00,5009.019385,N,01507.883929,E,1,12,0.6,196.2,M,44.7,M,,*79
$GPGSV,4,1,14,01,05,018,22,10,16,295,25,12,39,236,39,13,21,160,26,1*60
$GPGSV,4,2,14,15,40,195,40,17,44,071,38,19,48,102,44,20,07,262,25,1*66
$GPGSV,4,3,14,23,13,265,20,24,75,291,36,28,16,057,30,06,00,000,,1*67
$GPGSV,4,4,14,25,03,240,,32,02,324,,1*65
$GLGSV,3,1,09,78,66,317,32,77,40,064,22,79,21,272,27,69,35,312,31,1*7A
$GLGSV,3,2,09,88,17,132,24,87,34,094,37,67,09,196,40,68,41,241,38,1*74
$GLGSV,3,3,09,86,16,019,,1*40
$GAGSV,2,1,07,01,35,254,31,04,37,299,29,15,21,066,29,19,45,216,32,7*79
$GAGSV,2,2,07,21,85,343,29,27,33,067,29,13,12,118,,7*43
$GBGSV,3,1,11,08,09,073,28,10,18,061,24,13,03,095,25,14,30,277,32,1*7D
$GBGSV,3,2,11,21,06,201,37,24,23,275,29,26,72,292,33,29,36,078,40,1*74
$GBGSV,3,3,11,30,10,029,29,02,03,106,,05,18,127,,1*4A
$GNGSA,A,3,10,12,13,15,17,19,20,24,28,,,,0.9,0.6,0.7,1*3D
$GNGSA,A,3,67,68,69,78,79,87,,,,,,,0.9,0.6,0.7,2*34
$GNGSA,A,3,01,04,15,19,21,27,,,,,,,0.9,0.6,0.7,3*34
$GNGSA,A,3,08,10,14,,,,,,,,,,0.9,0.6,0.7,4*30
$GNVTG,190.5,T,190.5,M,1.2,N,2.2,K,A*3E
$GNDTM,P90,,0000.000026,S,00000.000000,E,0.974,W84*50
$GNRMC,181625.00,A,5009.019271,N,01507.886156,E,1.2,190.5,161120,1.5,E,A,V*50
$GNGNS,181625.00,5009.019271,N,01507.886156,E,AAAA,24,0.6,189.1,44.7,,,V*2A
$GNGGA,181625.00,5009.019271,N,01507.886156,E,1,12,0.6,189.1,M,44.7,M,,*7F
$GPGSV,4,1,14,01,05,018,23,10,16,295,26,12,39,236,40,13,21,160,24,1*6E
$GPGSV,4,2,14,15,40,195,40,17,44,071,39,19,48,102,39,20,07,262,22,1*6A
$GPGSV,4,3,14,23,13,265,29,24,75,291,31,28,16,057,27,06,00,000,,1*6F
$GPGSV,4,4,14,25,03,240,,32,02,324,,1*65
$GLGSV,3,1,09,78,66,317,32,86,16,019,18,77,40,064,27,79,21,272,26,1*7D
$GLGSV,3,2,09,69,35,312,32,88,17,132,24,87,34,094,38,67,09,196,41,1*75
$GLGSV,3,3,09,68,41,241,36,1*48
$GAGSV,2,1,07,01,35,254,31,04,37,299,23,15,21,066,30,19,45,216,30,7*79
$GAGSV,2,2,07,21,85,343,23,27,33,067,31,13,12,118,,7*40
$GBGSV,3,1,11,08,09,073,31,10,18,061,24,13,03,095,25,14,30,277,27,1*71
$GBGSV,3,2,11,21,06,201,39,24,23,275,30,26,72,292,34,29,36,078,36,1*74
$GBGSV,3,3,11,30,10,029,29,02,03,106,,05,18,127,,1*4A
$GNGSA,A,3,01,10,12,13,15,17,19,23,24,28,,,0.8,0.5,0.6,1*3C
$GNGSA,A,3,67,68,69,77,78,79,86,87,88,,,,0.8,0.5,0.6,2*39
$GNGSA,A,3,01,04,15,19,21,27,,,,,,,0.8,0.5,0.6,3*37
$GNGSA,A,3,08,10,14,,,,,,,,,,0.8,0.5,0.6,4*33
$GNVTG,209.3,T,209.3,M,2.6,N,4.9,K,A*34
$GNDTM,P90,,0000.000026,S,00000.000000,E,0.974,W84*50
$GNRMC,181629.00,A,5009.017696,N,01507.885571,E,2.6,209.3,161120,1.5,E,A,V*5F
$GNGNS,181629.00,5009.017696,N,01507.885571,E,AAAA,28,0.5,190.5,44.7,,,V*24
$GNGGA,181629.00,5009.017696,N,01507.885571,E,1,12,0.5,190.5,M,44.7,M,,*7D
$GPGSV,4,1,14,01,05,018,23,10,16,295,26,12,39,236,37,13,21,160,39,1*62
$GPGSV,4,2,14,15,40,195,39,17,44,071,37,19,48,102,28,20,07,262,22,1*6A
$GPGSV,4,3,14,23,13,265,28,24,75,291,30,28,16,057,31,06,00,000,,1*68
$GPGSV,4,4,14,25,03,240,,32,02,324,,1*65
$GLGSV,3,1,09,78,66,317,30,86,16,019,19,77,40,064,18,79,21,272,25,1*71
$GLGSV,3,2,09,69,35,312,28,88,17,132,22,87,34,094,24,67,09,196,38,1*7B
$GLGSV,3,3,09,68,41,241,33,1*4D
$GAGSV,2,1,07,01,35,254,28,04,37,299,24,15,21,066,24,19,45,216,26,7*74
$GAGSV,2,2,07,21,85,343,25,27,33,067,30,13,12,118,,7*47
$GBGSV,3,1,11,08,09,073,27,10,18,061,28,13,03,095,25,14,30,277,32,1*7E
$GBGSV,3,2,11,21,06,201,39,24,23,275,28,26,72,292,30,29,36,078,32,1*7D
$GBGSV,3,3,11,30,10,029,29,02,03,106,,05,18,127,,1*4A
$GNGSA,A,3,01,10,12,13,15,17,19,20,23,24,28,,0.8,0.5,0.6,1*3E
$GNGSA,A,3,67,68,69,77,78,79,86,87,88,,,,0.8,0.5,0.6,2*39
$GNGSA,A,3,01,04,15,19,21,27,,,,,,,0.8,0.5,0.6,3*37
$GNGSA,A,3,08,10,14,,,,,,,,,,0.8,0.5,0.6,4*33
$GNVTG,206.9,T,206.9,M,2.4,N,4.4,K,A*3B
$GNDTM,P90,,0000.000026,S,00000.000000,E,0.974,W84*50
$GNRMC,181633.00,A,5009.014930,N,01507.884707,E,2.4,206.9,161120,1.5,E,A,V*51
$GNGNS,181633.00,5009.014930,N,01507.884707,E,AAAA,29,0.5,192.6,44.7,,,V*2D
$GNGGA,181633.00,5009.014930,N,01507.884707,E,1,12,0.5,192.6,M,44.7,M,,*75
$GPGSV,4,1,14,01,05,018,23,10,16,295,27,12,39,236,38,13,21,160,37,1*62
$GPGSV,4,2,14,15,40,195,40,17,44,071,33,19,48,102,35,20,07,262,25,1*6B
$GPGSV,4,3,14,23,13,265,34,24,75,291,31,28,16,057,29,06,00,000,,1*6D
$GPGSV,4,4,14,25,03,240,,32,02,324,,1*65
$GLGSV,3,1,09,78,66,317,31,86,16,019,25,77,40,064,18,79,21,272,31,1*7A
$GLGSV,3,2,09,69,35,312,30,88,17,132,43,87,34,094,30,67,09,196,39,1*71
$GLGSV,3,3,09,68,41,241,40,1*49
$GAGSV,2,1,07,01,35,254,33,04,37,299,25,15,21,066,27,19,45,216,30,7*7B
$GAGSV,2,2,07,21,85,343,23,27,33,067,24,13,12,118,,7*44
$GBGSV,3,1,11,05,18,127,36,08,09,073,30,10,18,061,25,13,03,095,25,1*7D
$GBGSV,3,2,11,14,30,277,33,21,06,201,42,24,23,275,33,26,72,292,29,1*77
$GBGSV,3,3,11,29,36,078,28,30,10,029,29,02,03,106,,1*49
$GNGSA,A,3,10,12,13,15,17,19,20,23,24,28,,,0.8,0.5,0.6,1*3F
$GNGSA,A,3,67,68,69,77,78,79,86,87,88,,,,0.8,0.5,0.6,2*39
$GNGSA,A,3,01,04,15,19,21,27,,,,,,,0.8,0.5,0.6,3*37
$GNGSA,A,3,08,10,14,,,,,,,,,,0.8,0.5,0.6,4*33
$GNVTG,213.8,T,213.8,M,2.8,N,5.2,K,A*30
$GNDTM,P90,,0000.000026,S,00000.000000,E,0.974,W84*50
$GNRMC,181637.00,A,5009.011633,N,01507.882702,E,2.8,213.8,161120,1.5,E,A,V*56
$GNGNS,181637.00,5009.011633,N,01507.882702,E,AAAA,28,0.5,193.4,44.7,,,V*21
$GNGGA,181637.00,5009.011633,N,01507.882702,E,1,12,0.5,193.4,M,44.7,M,,*78
$GPGSV,4,1,14,10,16,295,32,12,39,236,43,13,21,160,34,15,40,195,44,1*68
$GPGSV,4,2,14,17,44,071,34,19,48,102,39,20,07,262,25,23,13,265,27,1*6E
$GPGSV,4,3,14,24,75,291,39,01,05,018,,06,00,000,,25,03,240,,1*6B
$GPGSV,4,4,14,28,16,057,,32,02,324,,1*68
$GLGSV,3,1,09,78,66,317,33,86,16,019,27,77,40,064,23,79,21,272,31,1*72
$GLGSV,3,2,09,69,35,312,26,88,17,132,42,87,34,094,39,67,09,196,42,1*72
$GLGSV,3,3,09,68,41,241,41,1*48
$GAGSV,2,1,07,01,35,254,34,04,37,299,26,13,12,118,28,15,21,066,22,7*76
$GAGSV,2,2,07,19,45,216,33,21,85,343,29,27,33,067,27,7*48
$GBGSV,3,1,11,05,18,127,37,08,09,073,28,10,18,061,24,13,03,095,25,1*74
$GBGSV,3,2,11,14,30,277,35,21,06,201,40,24,23,275,28,26,72,292,38,1*79
$GBGSV,3,3,11,29,36,078,38,02,03,106,,30,10,029,,1*43
$GNGSA,A,3,10,12,13,15,17,19,20,23,24,28,,,0.8,0.5,0.6,1*3F
$GNGSA,A,3,67,68,69,78,79,86,87,88,,,,,0.8,0.5,0.6,2*39
$GNGSA,A,3,01,04,13,15,19,21,27,,,,,,0.8,0.5,0.6,3*35
$GNGSA,A,3,08,10,14,,,,,,,,,,0.8,0.5,0.6,4*33
$GNVTG,223.2,T,223.2,M,2.4,N,4.4,K,A*3B
$GNDTM,P90,,0000.000026,S,00000.000000,E,0.974,W84*50
$GNRMC,181641.00,A,5009.009158,N,01507.879084,E,2.4,223.2,161120,1.5,E,A,V*5C
$GNGNS,181641.00,5009.009158,N,01507.879084,E,AAAA,28,0.5,195.0,44.7,,,V*2C
$GNGGA,181641.00,5009.009158,N,01507.879084,E,1,12,0.5,195.0,M,44.7,M,,*75
$GPGSV,4,1,14,10,16,295,31,12,39,236,34,13,21,160,37,15,40,195,42,1*6E
$GPGSV,4,2,14,17,44,071,37,19,48,102,39,20,07,262,26,23,13,265,29,1*60
$GPGSV,4,3,14,24,75,291,31,28,16,057,28,01,05,018,,06,00,000,,1*64
$GPGSV,4,4,14,25,03,240,,32,02,324,,1*65
$GLGSV,3,1,09,78,66,317,33,86,16,019,25,77,40,064,23,79,21,272,31,1*70
$GLGSV,3,2,09,69,35,312,32,88,17,132,35,87,34,094,38,67,09,196,34,1*77
$GLGSV,3,3,09,68,41,241,30,1*4E
$GAGSV,2,1,07,01,35,254,32,04,37,299,29,13,12,118,29,15,21,066,26,7*7A
$GAGSV,2,2,07,19,45,216,29,21,85,343,25,27,33,067,33,7*4A
$GBGSV,3,1,11,05,18,127,35,08,09,073,28,13,03,095,25,14,30,277,29,1*70
$GBGSV,3,2,11,21,06,201,36,24,23,275,30,26,72,292,29,29,36,078,39,1*78
$GBGSV,3,3,11,02,03,106,,10,18,061,,30,10,029,,1*46
$GNGSA,A,3,10,12,13,15,17,19,20,23,24,28,,,0.8,0.5,0.6,1*3F
$GNGSA,A,3,67,68,69,78,79,86,87,88,,,,,0.8,0.5,0.6,2*39
$GNGSA,A,3,01,04,13,15,19,21,27,,,,,,0.8,0.5,0.6,3*35
$GNGSA,A,3,14,,,,,,,,,,,,0.8,0.5,0.6,4*3A
$GNVTG,206.9,T,206.9,M,1.3,N,2.5,K,A*38
$GNDTM,P90,,0000.000026,S,00000.000000,E,0.974,W84*50
$GNRMC,181645.00,A,5009.008558,N,01507.875397,E,1.3,206.9,161120,1.5,E,A,V*58
$GNGNS,181645.00,5009.008558,N,01507.875397,E,AAAA,26,0.5,193.7,44.7,,,V*2F
$GNGGA,181645.00,5009.008558,N,01507.875397,E,1,12,0.5,193.7,M,44.7,M,,*78
$GPGSV,4,1,14,10,16,295,31,12,39,236,44,13,21,160,45,15,40,195,46,1*68
$GPGSV,4,2,14,17,44,071,40,19,48,102,44,20,07,262,23,23,13,265,25,1*63
$GPGSV,4,3,14,24,75,291,39,01,05,018,,06,00,000,,25,03,240,,1*6B
$GPGSV,4,4,14,28,16,057,,32,02,324,,1*68
$GLGSV,3,1,09,78,66,317,37,86,16,019,30,77,40,064,24,79,21,272,30,1*76
$GLGSV,3,2,09,69,35,312,29,88,17,132,36,87,34,094,43,67,09,196,46,1*77
$GLGSV,3,3,09,68,41,241,42,1*4B
$GAGSV,2,1,07,01,35,254,35,04,37,299,22,13,12,118,22,15,21,066,31,7*7B
$GAGSV,2,2,07,19,45,216,35,21,85,343,32,27,33,067,34,7*46
$GBGSV,3,1,11,05,18,127,33,08,09,073,28,10,18,061,27,14,30,277,29,1*76
$GBGSV,3,2,11,21,06,201,39,24,23,275,29,26,72,292,39,29,36,078,42,1*72
$GBGSV,3,3,11,02,03,106,,13,03,095,,30,10,029,,1*44
$GNGSA,A,3,10,12,13,15,17,19,20,23,24,28,,,0.8,0.5,0.6,1*3F
$GNGSA,A,3,67,68,69,77,78,79,86,87,88,,,,0.8,0.5,0.6,2*39
$GNGSA,A,3,01,04,13,15,19,21,27,,,,,,0.8,0.5,0.6,3*35
$GNGSA,A,3,14,,,,,,,,,,,,0.8,0.5,0.6,4*3A
$GNVTG,187.3,T,187.3,M,2.6,N,4.8,K,A*35
$GNDTM,P90,,0000.000026,S,00000.000000,E,0.974,W84*50
$GNRMC,181649.00,A,5009.006019,N,01507.874560,E,2.6,187.3,161120,1.5,E,A,V*53
$GNGNS,181649.00,5009.006019,N,01507.874560,E,AAAA,27,0.5,195.1,44.7,,,V*23
$GNGGA,181649.00,5009.006019,N,01507.874560,E,1,12,0.5,195.1,M,44.7,M,,*75
$GNGSA,A,3,10,12,13,15,17,19,23,24,28,,,,0.9,0.5,0.7,1*3D
$GNGSA,A,3,67,68,69,77,78,79,86,87,88,,,,0.9,0.5,0.7,2*39
$GNGSA,A,3,01,04,15,19,21,27,,,,,,,0.9,0.5,0.7,3*37
$GNGSA,A,3,10,14,,,,,,,,,,,0.9,0.5,0.7,4*3B
$GNVTG,206.9,T,206.9,M,0.8,N,1.4,K,A*30
$GNDTM,P90,,0000.000026,S,00000.000000,E,0.974,W84*50
$GNRMC,181653.00,A,5009.004804,N,01507.873824,E,0.8,206.9,161120,1.5,E,A,V*58
$GNGNS,181653.00,5009.004804,N,01507.873824,E,AAAA,26,0.5,197.7,44.7,,,V*21
$GNGGA,181653.00,5009.004804,N,01507.873824,E,1,12,0.5,197.7,M,44.7,M,,*76
$GNGSA,A,3,12,13,15,17,24,,,,,,,,1.0,0.7,0.8,1*3A
$GNGSA,A,3,67,68,69,78,86,87,88,,,,,,1.0,0.7,0.8,2*32
$GNGSA,A,3,01,04,19,21,27,,,,,,,,1.0,0.7,0.8,3*36
$GNVTG,206.9,T,206.9,M,0.8,N,1.4,K,A*30
$GNDTM,P90,,0000.000026,S,00000.000000,E,0.974,W84*50
$GNRMC,181657.00,A,5009.005572,N,01507.872995,E,0.8,206.9,161120,1.5,E,A,V*5B
$GNGNS,181657.00,5009.005572,N,01507.872995,E,AAA,17,0.7,200.5,44.7,,,V*6C
$GNGGA,181657.00,5009.005572,N,01507.872995,E,1,12,0.7,200.5,M,44.7,M,,*78
$GNGSA,A,3,12,13,15,17,19,24,,,,,,,1.2,0.8,0.8,1*3F
$GNGSA,A,3,67,68,78,79,87,88,,,,,,,1.2,0.8,0.8,2*30
$GNGSA,A,3,01,19,21,27,,,,,,,,,1.2,0.8,0.8,3*3F
$GNVTG,,T,,M,0.0,N,0.0,K,A*3D
$GNDTM,P90,,0000.000026,S,00000.000000,E,0.974,W84*50
$GNRMC,181701.00,A,5009.004598,N,01507.870460,E,0.0,,161120,1.5,E,A,V*72
$GNGNS,181701.00,5009.004598,N,01507.870460,E,AAA,16,0.8,199.9,44.7,,,V*6F
$GNGGA,181701.00,5009.004598,N,01507.870460,E,1,12,0.8,199.9,M,44.7,M,,*7A
$GPGSV,4,1,14,12,39,236,43,13,21,160,45,15,40,195,47,17,44,071,37,1*60
$GPGSV,4,2,14,19,48,102,36,24,75,291,37,01,05,018,,06,00,000,,1*64
$GPGSV,4,3,14,10,16,295,,20,07,262,,23,13,265,,25,03,240,,1*6D
$GPGSV,4,4,14,28,16,057,,32,02,324,,1*68
$GLGSV,2,1,08,78,66,317,37,88,17,132,39,87,34,094,41,67,09,196,44,1*77
$GLGSV,2,2,08,68,41,241,38,86,16,019,,77,40,064,,69,35,312,,1*79
$GAGSV,2,1,07,01,35,254,36,04,37,299,31,19,45,216,30,21,85,343,37,7*77
$GAGSV,2,2,07,27,33,067,40,13,12,118,,15,21,066,,7*4A
$GNGSA,A,3,12,13,15,17,19,24,,,,,,,1.2,0.8,0.9,1*3E
$GNGSA,A,3,67,68,78,87,88,,,,,,,,1.2,0.8,0.9,2*3F
$GNGSA,A,3,01,04,19,21,27,,,,,,,,1.2,0.8,0.9,3*3A
$GNVTG,,T,,M,0.0,N,0.0,K,A*3D
$GNDTM,P90,,0000.000026,S,00000.000000,E,0.974,W84*50
$GNRMC,181705.00,A,5009.006083,N,01507.872181,E,0.0,,161120,1.5,E,A,V*73
$GNGNS,181705.00,5009.006083,N,01507.872181,E,AAA,16,0.8,188.8,44.7,,,V*6F
$GNGGA,181705.00,5009.006083,N,01507.872181,E,1,12,0.8,188.8,M,44.7,M,,*7A
$GNGSA,A,3,12,13,15,17,19,24,,,,,,,1.2,0.8,0.9,1*3E
$GNGSA,A,3,67,68,78,87,88,,,,,,,,1.2,0.8,0.9,2*3F
$GNGSA,A,3,01,04,19,21,27,,,,,,,,1.2,0.8,0.9,3*3A
$GNVTG,,T,,M,0.0,N,0.0,K,A*3D
$GNDTM,P90,,0000.000026,S,00000.000000,E,0.974,W84*50
$GNRMC,181709.00,A,5009.007673,N,01507.874329,E,0.0,,161120,1.5,E,A,V*71
$GNGNS,181709.00,5009.007673,N,01507.874329,E,AAA,16,0.8,188.8,44.7,,,V*6D
$GNGGA,181709.00,5009.007673,N,01507.874329,E,1,12,0.8,188.8,M,44.7,M,,*78
$GNGSA,A,3,12,13,15,17,19,23,24,28,,,,,1.0,0.7,0.7,1*36
$GNGSA,A,3,67,68,78,87,88,,,,,,,,1.0,0.7,0.7,2*3C
$GNGSA,A,3,01,13,15,19,21,27,,,,,,,1.0,0.7,0.7,3*3B
$GNVTG,204.7,T,204.7,M,2.6,N,4.8,K,A*35
$GNDTM,P90,,0000.000026,S,00000.000000,E,0.974,W84*50
$GNRMC,181713.00,A,5009.005668,N,01507.873729,E,2.6,204.7,161120,1.5,E,A,V*5A
$GNGNS,181713.00,5009.005668,N,01507.873729,E,AAA,19,0.7,190.6,44.7,,,V*6A
$GNGGA,181713.00,5009.005668,N,01507.873729,E,1,12,0.7,190.6,M,44.7,M,,*70
$GNGSA,A,3,12,13,15,17,19,23,24,28,,,,,1.0,0.7,0.7,1*36
$GNGSA,A,3,67,68,78,87,88,,,,,,,,1.0,0.7,0.7,2*3C
$GNGSA,A,3,01,13,15,19,21,27,,,,,,,1.0,0.7,0.7,3*3B
$GNVTG,204.7,T,204.7,M,2.6,N,4.8,K,A*35
$GNDTM,P90,,0000.000026,S,00000.000000,E,0.974,W84*50
$GNRMC,181717.00,A,5009.001932,N,01507.871903,E,2.6,204.7,161120,1.5,E,A,V*5E
$GNGNS,181717.00,5009.001932,N,01507.871903,E,AAA,19,0.7,190.8,44.7,,,V*60
$GNGGA,181717.00,5009.001932,N,01507.871903,E,1,12,0.7,190.8,M,44.7,M,,*7A
$GPGSV,4,1,14,01,04,016,24,10,15,295,24,12,40,236,34,13,20,160,42,1*6B
$GPGSV,4,2,14,15,40,195,41,17,44,070,40,19,48,102,42,23,12,264,25,1*6E
$GPGSV,4,3,14,24,75,291,35,28,16,057,34,06,00,000,,20,06,262,,1*62
$GPGSV,4,4,14,25,03,240,,32,03,324,,1*64
$GLGSV,3,1,09,78,67,319,34,86,16,019,25,79,21,274,28,69,35,312,27,1*7D
$GLGSV,3,2,09,88,18,132,38,87,35,092,42,67,09,196,36,68,41,240,33,1*78
$GLGSV,3,3,09,77,40,066,,1*45
$GAGSV,2,1,07,01,36,254,26,04,37,298,23,13,12,116,32,15,21,066,32,7*76
$GAGSV,2,2,07,19,45,216,29,21,84,347,32,27,33,067,36,7*4C
$GQGSV,1,1,01,03,04,039,27,1*5C
$GBGSV,3,1,10,05,18,127,30,10,18,061,36,14,30,275,25,21,05,201,47,1*73
$GBGSV,3,2,10,26,73,292,35,29,36,078,37,30,09,029,33,02,03,106,,1*7B
$GBGSV,3,3,10,08,09,073,,13,04,095,,1*78
$GNGSA,A,3,10,12,13,15,17,19,23,24,28,,,,0.9,0.5,0.7,1*3D
$GNGSA,A,3,67,68,69,78,79,86,87,88,,,,,0.9,0.5,0.7,2*39
$GNGSA,A,3,01,13,15,19,21,27,,,,,,,0.9,0.5,0.7,3*31
$GNGSA,A,3,10,,,,,,,,,,,,0.9,0.5,0.7,4*3E
$GNVTG,206.5,T,206.5,M,3.1,N,5.8,K,A*32
$GNDTM,P90,,0000.000026,S,00000.000000,E,0.974,W84*50
$GNRMC,181721.00,A,5008.997191,N,01507.868845,E,3.1,206.5,161120,1.5,E,A,V*50
$GNGNS,181721.00,5008.997191,N,01507.868845,E,AAAA,24,0.5,193.4,44.7,,,V*2A
$GNGGA,181721.00,5008.997191,N,01507.868845,E,1,12,0.5,193.4,M,44.7,M,,*7F
$GPGSV,4,1,14,10,15,295,34,12,40,236,39,13,20,160,41,15,40,195,39,1*67
$GPGSV,4,2,14,17,44,070,36,19,48,102,39,20,06,262,25,23,12,264,37,1*6D
$GPGSV,4,3,14,24,75,291,36,28,16,057,30,01,04,016,,06,00,000,,1*65
$GPGSV,4,4,14,25,03,240,,32,03,324,,1*64
$GLGSV,3,1,09,78,67,319,31,86,16,019,27,77,40,066,25,79,21,274,34,1*78
$GLGSV,3,2,09,69,35,312,27,88,18,132,35,87,35,092,39,67,09,196,34,1*7A
$GLGSV,3,3,09,68,41,240,37,1*48
$GAGSV,2,1,07,01,36,254,34,04,37,298,23,13,12,116,30,15,21,066,34,7*71
$GAGSV,2,2,07,19,45,216,32,21,84,347,29,27,33,067,31,7*4B
$GQGSV,1,1,01,03,04,039,24,1*5F
$GBGSV,3,1,10,05,18,127,31,08,09,073,26,10,18,061,26,14,30,275,27,1*76
$GBGSV,3,2,10,21,05,201,40,26,73,292,33,29,36,078,36,30,09,029,33,1*7B
$GBGSV,3,3,10,02,03,106,,13,04,095,,1*7B
$GNGSA,A,3,10,12,13,15,17,19,23,24,28,,,,0.9,0.5,0.7,1*3D
$GNGSA,A,3,67,68,69,78,79,86,87,88,,,,,0.9,0.5,0.7,2*39
$GNGSA,A,3,01,13,15,19,21,27,,,,,,,0.9,0.5,0.7,3*31
$GNGSA,A,3,10,,,,,,,,,,,,0.9,0.5,0.7,4*3E
$GNVTG,211.1,T,211.1,M,3.1,N,5.7,K,A*3D
$GNDTM,P90,,0000.000026,S,00000.000000,E,0.974,W84*50
$GNRMC,181725.00,A,5008.993113,N,01507.865726,E,3.1,211.1,161120,1.5,E,A,V*5F
$GNGNS,181725.00,5008.993113,N,01507.865726,E,AAAA,24,0.5,195.3,44.7,,,V*26
$GNGGA,181725.00,5008.993113,N,01507.865726,E,1,12,0.5,195.3,M,44.7,M,,*73
$GPGSV,4,1,14,01,04,016,26,10,15,295,25,12,40,236,32,13,20,160,33,1*68
$GPGSV,4,2,14,15,40,195,34,17,44,070,30,19,48,102,30,20,06,262,29,1*62
$GPGSV,4,3,14,23,12,264,22,24,75,291,33,28,16,057,29,06,00,000,,1*68
$GPGSV,4,4,14,25,03,240,,32,03,324,,1*64
$GLGSV,3,1,09,78,67,319,30,86,16,019,32,77,40,066,25,79,21,274,27,1*7F
$GLGSV,3,2,09,69,35,312,27,88,18,132,30,87,35,092,30,67,09,196,26,1*75
$GLGSV,3,3,09,68,41,240,31,1*4E
$GAGSV,2,1,07,01,36,254,28,04,37,298,28,13,12,116,29,15,21,066,29,7*73
$GAGSV,2,2,07,19,45,216,26,21,84,347,26,27,33,067,26,7*47
$GQGSV,1,1,01,03,04,039,24,1*5F
$GBGSV,3,1,11,05,18,127,31,08,09,073,24,10,18,061,25,14,30,275,29,1*78
$GBGSV,3,2,11,21,05,201,29,24,23,275,31,26,73,292,32,29,36,078,29,1*7E
$GBGSV,3,3,11,30,09,029,30,02,03,106,,13,04,095,,1*48
$GNGSA,A,3,01,10,12,13,15,17,19,20,23,24,28,,0.8,0.5,0.6,1*3E
$GNGSA,A,3,67,68,69,78,79,86,87,88,,,,,0.8,0.5,0.6,2*39
$GNGSA,A,3,01,04,13,15,19,21,27,,,,,,0.8,0.5,0.6,3*35
$GNGSA,A,3,08,10,14,,,,,,,,,,0.8,0.5,0.6,4*33
$GNVTG,197.0,T,197.0,M,2.4,N,4.4,K,A*3B
$GNDTM,P90,,0000.000026,S,00000.000000,E,0.974,W84*50
$GNRMC,181729.00,A,5008.990719,N,01507.863257,E,2.4,197.0,161120,1.5,E,A,V*51
$GNGNS,181729.00,5008.990719,N,01507.863257,E,AAAA,29,0.5,191.8,44.7,,,V*22
$GNGGA,181729.00,5008.990719,N,01507.863257,E,1,12,0.5,191.8,M,44.7,M,,*7A
$GPGSV,4,1,14,10,15,295,25,12,40,236,31,13,20,160,31,15,40,195,30,1*61
$GPGSV,4,2,14,17,44,070,32,19,48,102,29,20,06,262,20,23,12,264,32,1*68
$GPGSV,4,3,14,24,75,291,34,28,16,057,28,01,04,016,,06,00,000,,1*6E
$GPGSV,4,4,14,25,03,240,,32,03,324,,1*64
$GLGSV,3,1,09,78,67,319,29,86,16,019,33,77,40,066,25,79,21,274,29,1*78
$GLGSV,3,2,09,69,35,312,22,88,18,132,33,87,35,092,28,67,09,196,27,1*7B
$GLGSV,3,3,09,68,41,240,29,1*47
$GAGSV,2,1,07,01,36,254,25,04,37,298,23,13,12,116,20,15,21,066,27,7*72
$GAGSV,2,2,07,19,45,216,26,21,84,347,28,27,33,067,27,7*48
$GQGSV,1,1,01,03,04,039,24,1*5F
$GBGSV,3,1,11,05,18,127,31,08,09,073,26,10,18,061,27,14,30,275,25,1*74
$GBGSV,3,2,11,21,05,201,28,24,23,275,27,26,73,292,33,29,36,078,32,1*73
$GBGSV,3,3,11,30,09,029,39,02,03,106,,13,04,095,,1*41
$GNGSA,A,3,01,10,12,13,15,17,19,20,23,24,28,,0.8,0.5,0.6,1*3E
$GNGSA,A,3,67,68,69,78,79,86,87,88,,,,,0.8,0.5,0.6,2*39
$GNGSA,A,3,01,04,13,15,19,21,27,,,,,,0.8,0.5,0.6,3*35
$GNGSA,A,3,08,10,14,,,,,,,,,,0.8,0.5,0.6,4*33
$GNVTG,202.0,T,202.0,M,3.2,N,5.9,K,A*30
$GNDTM,P90,,0000.000026,S,00000.000000,E,0.974,W84*50
$GNRMC,181733.00,A,5008.987860,N,01507.860569,E,3.2,202.0,161120,1.5,E,A,V*5C
$GNGNS,181733.00,5008.987860,N,01507.860569,E,AAAA,29,0.5,193.6,44.7,,,V*2B
$GNGGA,181733.00,5008.987860,N,01507.860569,E,1,12,0.5,193.6,M,44.7,M,,*73
$GPGSV,4,1,14,10,15,295,24,12,40,236,30,13,20,160,34,15,40,195,32,1*66
$GPGSV,4,2,14,17,44,070,28,19,48,102,28,20,06,262,20,23,12,264,26,1*67
$GPGSV,4,3,14,24,75,291,32,28,16,057,26,01,04,016,,06,00,000,,1*66
$GPGSV,4,4,14,25,03,240,,32,03,324,,1*64
$GLGSV,3,1,09,78,67,319,30,86,16,019,29,77,40,066,18,79,21,274,27,1*7B
$GLGSV,3,2,09,69,35,312,22,88,18,132,32,87,35,092,27,67,09,196,24,1*76
$GLGSV,3,3,09,68,41,240,27,1*49
$GAGSV,2,1,07,01,36,254,19,04,37,298,20,13,12,116,23,15,21,066,24,7*7E
$GAGSV,2,2,07,19,45,216,25,21,84,347,26,27,33,067,26,7*44
$GQGSV,1,1,01,03,04,039,24,1*5F
$GBGSV,3,1,11,05,18,127,28,08,09,073,28,10,18,061,25,14,30,275,25,1*70
$GBGSV,3,2,11,21,05,201,30,24,23,275,27,26,73,292,34,29,36,078,27,1*79
$GBGSV,3,3,11,30,09,029,37,02,03,106,,13,04,095,,1*4F
$GNGSA,A,3,10,12,13,15,17,19,20,23,24,28,,,0.8,0.5,0.6,1*3F
$GNGSA,A,3,67,68,69,77,78,79,86,87,88,,,,0.8,0.5,0.6,2*39
$GNGSA,A,3,01,04,13,15,19,21,27,,,,,,0.8,0.5,0.6,3*35
$GNGSA,A,3,08,10,14,,,,,,,,,,0.8,0.5,0.6,4*33
$GNVTG,198.2,T,198.2,M,3.0,N,5.5,K,A*3E
$GNDTM,P90,,0000.000026,S,00000.000000,E,0.974,W84*50
$GNRMC,181737.00,A,5008.984946,N,01507.859324,E,3.0,198.2,161120,1.5,E,A,V*5B
$GNGNS,181737.00,5008.984946,N,01507.859324,E,AAAA,29,0.5,192.8,44.7,,,V*23
$GNGGA,181737.00,5008.984946,N,01507.859324,E,1,12,0.5,192.8,M,44.7,M,,*7B
$GPGSV,4,1,14,01,04,016,24,12,40,236,35,13,20,160,33,15,40,195,29,1*67
$GPGSV,4,2,14,17,44,070,32,19,48,102,29,20,06,262,20,23,12,264,19,1*61
$GPGSV,4,3,14,24,75,291,32,28,16,057,31,06,00,000,,10,15,295,,1*69
$GPGSV,4,4,14,25,03,240,,32,03,324,,1*64
$GLGSV,3,1,09,78,67,319,28,86,16,019,30,77,40,066,18,79,21,274,25,1*78
$GLGSV,3,2,09,69,35,312,18,88,18,132,32,87,35,092,30,67,09,196,26,1*7B
$GLGSV,3,3,09,68,41,240,32,1*4D
$GAGSV,2,1,07,01,36,254,32,04,37,298,18,13,12,116,22,15,21,066,27,7*7E
$GAGSV,2,2,07,19,45,216,25,21,84,347,25,27,33,067,22,7*43
$GQGSV,1,1,01,03,04,039,24,1*5F
$GBGSV,3,1,11,05,18,127,28,08,09,073,27,10,18,061,26,14,30,275,25,1*7C
$GBGSV,3,2,11,21,05,201,30,24,23,275,30,26,73,292,30,29,36,078,31,1*7C
$GBGSV,3,3,11,30,09,029,34,02,03,106,,13,04,095,,1*4C
$GNGSA,A,3,01,12,13,15,17,19,23,24,28,,,,0.8,0.5,0.6,1*3D
$GNGSA,A,3,67,68,69,77,78,79,86,87,88,,,,0.8,0.5,0.6,2*39
$GNGSA,A,3,01,04,13,15,19,21,27,,,,,,0.8,0.5,0.6,3*35
$GNGSA,A,3,08,10,14,,,,,,,,,,0.8,0.5,0.6,4*33
$GNVTG,211.9,T,211.9,M,2.9,N,5.4,K,A*37
$GNDTM,P90,,0000.000026,S,00000.000000,E,0.974,W84*50
$GNRMC,181741.00,A,5008.982643,N,01507.856792,E,2.9,211.9,161120,1.5,E,A,V*51
$GNGNS,181741.00,5008.982643,N,01507.856792,E,AAAA,28,0.5,192.2,44.7,,,V*23
$GNGGA,181741.00,5008.982643,N,01507.856792,E,1,12,0.5,192.2,M,44.7,M,,*7A
$GPGSV,4,1,14,10,15,295,30,12,40,236,28,13,20,160,29,15,40,195,29,1*6C
$GPGSV,4,2,14,17,44,070,34,19,48,102,26,20,06,262,15,23,12,264,19,1*6E
$GPGSV,4,3,14,24,75,291,33,28,16,057,33,01,04,016,,06,00,000,,1*63
$GPGSV,4,4,14,25,03,240,,32,03,324,,1*64
$GLGSV,3,1,09,78,67,319,28,86,16,019,32,77,40,066,18,79,21,274,22,1*7D
$GLGSV,3,2,09,69,35,312,18,88,18,132,32,87,35,092,27,67,09,196,23,1*78
$GLGSV,3,3,09,68,41,240,28,1*46
$GAGSV,2,1,07,01,36,254,28,04,37,298,22,13,12,116,26,15,21,066,24,7*7B
$GAGSV,2,2,07,19,45,216,23,21,84,347,27,27,33,067,24,7*41
$GQGSV,1,1,01,03,04,039,24,1*5F
$GBGSV,3,1,11,05,18,127,32,08,09,073,26,10,18,061,30,14,30,275,27,1*73
$GBGSV,3,2,11,21,05,201,32,24,23,275,27,26,73,292,33,29,36,078,33,1*79
$GBGSV,3,3,11,30,09,029,29,02,03,106,,13,04,095,,1*40
$GNGSA,A,3,01,10,12,13,15,17,19,20,23,24,28,,0.8,0.5,0.6,1*3E
$GNGSA,A,3,67,68,69,78,79,86,87,88,,,,,0.8,0.5,0.6,2*39
$GNGSA,A,3,01,04,13,15,19,21,27,,,,,,0.8,0.5,0.6,3*35
$GNGSA,A,3,08,10,14,,,,,,,,,,0.8,0.5,0.6,4*33
$GNVTG,199.6,T,199.6,M,3.0,N,5.5,K,A*3E
$GNDTM,P90,,0000.000026,S,00000.000000,E,0.974,W84*50
$GNRMC,181745.00,A,5008.979818,N,01507.855279,E,3.0,199.6,161120,1.5,E,A,V*56
$GNGNS,181745.00,5008.979818,N,01507.855279,E,AAAA,29,0.5,192.9,44.7,,,V*2A
$GNGGA,181745.00,5008.979818,N,01507.855279,E,1,12,0.5,192.9,M,44.7,M,,*72
$GPGSV,4,1,14,12,40,236,27,13,20,160,28,15,40,195,26,17,44,070,32,1*65
$GPGSV,4,2,14,19,48,102,28,20,06,262,15,23,12,264,22,24,75,291,29,1*6B
$GPGSV,4,3,14,28,16,057,28,01,04,016,,06,00,000,,10,15,295,,1*6C
$GPGSV,4,4,14,25,03,240,,32,03,324,,1*64
$GLGSV,3,1,09,78,67,319,27,86,16,019,30,77,40,066,16,79,21,274,24,1*78
$GLGSV,3,2,09,69,35,312,24,88,18,132,26,87,35,092,27,67,09,196,25,1*74
$GLGSV,3,3,09,68,41,240,30,1*4F
$GAGSV,2,1,07,01,36,254,23,04,37,298,23,13,12,116,19,15,21,066,22,7*7B
$GAGSV,2,2,07,19,45,216,22,21,84,347,24,27,33,067,28,7*4F
$GBGSV,3,1,11,05,18,127,30,08,09,073,26,10,18,061,25,14,30,275,27,1*75
$GBGSV,3,2,11,21,05,201,31,24,23,275,30,26,73,292,27,29,36,078,30,1*7A
$GBGSV,3,3,11,30,09,029,33,02,03,106,,13,04,095,,1*4B
$GNGSA,A,3,10,12,13,15,17,19,20,23,24,28,,,0.8,0.5,0.6,1*3F
$GNGSA,A,3,67,68,69,77,78,79,86,87,88,,,,0.8,0.5,0.6,2*39
$GNGSA,A,3,01,04,13,15,19,21,27,,,,,,0.8,0.5,0.6,3*35
$GNGSA,A,3,08,10,14,,,,,,,,,,0.8,0.5,0.6,4*33
$GNVTG,212.3,T,212.3,M,2.9,N,5.4,K,A*37
$GNDTM,P90,,0000.000026,S,00000.000000,E,0.974,W84*50
$GNRMC,181749.00,A,5008.977331,N,01507.852079,E,2.9,212.3,161120,1.5,E,A,V*5C
$GNGNS,181749.00,5008.977331,N,01507.852079,E,AAAA,29,0.5,190.5,44.7,,,V*23
$GNGGA,181749.00,5008.977331,N,01507.852079,E,1,12,0.5,190.5,M,44.7,M,,*7B
$GPGSV,4,1,14,10,15,295,28,12,40,236,26,13,20,160,34,15,40,195,29,1*67
$GPGSV,4,2,14,17,44,070,31,19,48,102,28,20,06,262,19,23,12,264,30,1*62
$GPGSV,4,3,14,24,75,291,31,28,16,057,30,01,04,016,,06,00,000,,1*62
$GPGSV,4,4,14,25,03,240,,32,03,324,,1*64
$GLGSV,3,1,09,78,67,319,28,86,16,019,22,77,40,066,16,79,21,274,31,1*70
$GLGSV,3,2,09,69,35,312,32,88,18,132,23,87,35,092,30,67,09,196,25,1*70
$GLGSV,3,3,09,68,41,240,24,1*4A
$GAGSV,2,1,07,01,36,254,23,04,37,298,24,13,12,116,23,15,21,066,23,7*74
$GAGSV,2,2,07,19,45,216,23,21,84,347,24,27,33,067,27,7*41
$GBGSV,3,1,11,05,18,127,30,08,09,073,26,10,18,061,29,14,30,275,20,1*7E
$GBGSV,3,2,11,21,05,201,25,24,23,275,21,26,73,292,35,29,36,078,26,1*7B
$GBGSV,3,3,11,30,09,029,36,02,03,106,,13,04,095,,1*4E
$GNGSA,A,3,10,12,13,15,17,19,20,23,24,28,,,0.8,0.5,0.6,1*3F
$GNGSA,A,3,67,68,69,77,78,79,86,87,88,,,,0.8,0.5,0.6,2*39
$GNGSA,A,3,01,04,13,15,19,21,27,,,,,,0.8,0.5,0.6,3*35
$GNGSA,A,3,10,14,,,,,,,,,,,0.8,0.5,0.6,4*3B
$GNVTG,209.8,T,209.8,M,2.7,N,5.0,K,A*3D
$GNDTM,P90,,0000.000026,S,00000.000000,E,0.974,W84*50
$GNRMC,181753.00,A,5008.974808,N,01507.850124,E,2.7,209.8,161120,1.5,E,A,V*51
$GNGNS,181753.00,5008.974808,N,01507.850124,E,AAAA,28,0.5,191.8,44.7,,,V*2C
$GNGGA,181753.00,5008.974808,N,01507.850124,E,1,12,0.5,191.8,M,44.7,M,,*75
$GPGSV,4,1,14,10,15,295,27,12,40,236,35,13,20,160,34,15,40,195,33,1*61
$GPGSV,4,2,14,17,44,070,30,19,48,102,27,20,06,262,19,23,12,264,24,1*69
$GPGSV,4,3,14,24,75,291,32,28,16,057,31,01,04,016,,06,00,000,,1*60
$GPGSV,4,4,14,25,03,240,,32,03,324,,1*64
$GLGSV,3,1,09,78,67,319,28,86,16,019,24,77,40,066,16,79,21,274,27,1*71
$GLGSV,3,2,09,69,35,312,32,88,18,132,26,87,35,092,30,67,09,196,30,1*71
$GLGSV,3,3,09,68,41,240,34,1*4B
$GAGSV,2,1,07,01,36,254,24,04,37,298,24,13,12,116,23,15,21,066,24,7*74
$GAGSV,2,2,07,19,45,216,22,21,84,347,26,27,33,067,27,7*42
$GBGSV,3,1,11,05,18,127,30,08,09,073,19,10,18,061,28,14,30,275,20,1*73
$GBGSV,3,2,11,21,05,201,25,24,23,275,27,26,73,292,31,29,36,078,29,1*76
$GBGSV,3,3,11,30,09,029,33,02,03,106,,13,04,095,,1*4B
$GNGSA,A,3,10,12,13,15,17,19,23,24,28,,,,0.9,0.6,0.7,1*3E
$GNGSA,A,3,67,68,78,79,86,87,88,,,,,,0.9,0.6,0.7,2*35
$GNGSA,A,3,01,15,19,21,27,,,,,,,,0.9,0.6,0.7,3*30
$GNGSA,A,3,08,10,14,,,,,,,,,,0.9,0.6,0.7,4*30
$GNVTG,210.0,T,210.0,M,2.6,N,4.8,K,A*35
$GNDTM,P90,,0000.000026,S,00000.000000,E,0.974,W84*50
$GNRMC,181757.00,A,5008.972083,N,01507.848239,E,2.6,210.0,161120,1.5,E,A,V*5F
$GNGNS,181757.00,5008.972083,N,01507.848239,E,AAAA,24,0.6,193.5,44.7,,,V*23
$GNGGA,181757.00,5008.972083,N,01507.848239,E,1,12,0.6,193.5,M,44.7,M,,*76
$GPGSA,A,1,,,,,,,,,,,,,,,,*32
$GPVTG,,T,,M,,N,,K,N*2C
$GPDTM,,,,,,,,*4A
$GPRMC,,V,,,,,,,,,,N,V*29
$GPGNS,,,,,,N,,,,,,,V*79
$GPGGA,,,,,,0,,,,,,,,*66
$GPGSV,4,1,14,10,15,295,39,12,40,236,33,13,20,160,30,15,40,195,30,1*6F
$GPGSV,4,2,14,17,43,070,29,19,48,101,28,20,06,262,18,23,12,264,30,1*6E
$GPGSV,4,3,14,24,75,291,33,28,16,057,30,01,04,016,,06,00,000,,1*60
$GPGSV,4,4,14,25,03,241,,32,03,324,,1*65
$GLGSV,3,1,09,78,67,320,28,86,16,018,25,77,40,066,17,79,21,274,36,1*7A
$GLGSV,3,2,09,69,35,310,29,88,18,130,31,87,35,092,26,67,08,196,31,1*7A
$GLGSV,3,3,09,68,40,240,32,1*4C
$GAGSV,2,1,07,01,36,255,31,04,37,298,34,13,12,116,17,15,21,066,25,7*76
$GAGSV,2,2,07,19,45,216,26,21,84,350,23,27,33,067,27,7*45
$GQGSV,1,1,01,03,04,039,,1*59
$GBGSV,3,1,11,05,18,127,23,08,09,073,27,10,18,061,27,14,30,275,36,1*74
$GBGSV,3,2,11,21,05,201,27,24,23,275,37,26,73,293,33,29,36,078,28,1*77
$GBGSV,3,3,11,30,09,029,33,02,03,106,,13,04,095,,1*4B
$GNGSA,A,3,10,12,13,15,17,19,20,23,24,28,,,0.8,0.5,0.6,1*3F
$GNGSA,A,3,67,68,69,77,78,79,86,87,88,,,,0.8,0.5,0.6,2*39
$GNGSA,A,3,01,04,13,15,19,21,27,,,,,,0.8,0.5,0.6,3*35
$GNGSA,A,3,08,10,14,,,,,,,,,,0.8,0.5,0.6,4*33
$GNVTG,212.1,T,212.1,M,2.1,N,4.0,K,A*3A
$GNDTM,P90,,0000.000026,S,00000.000000,E,0.974,W84*50
$GNRMC,181801.43,A,5008.969633,N,01507.844628,E,2.1,212.1,161120,1.5,E,A,V*5F
$GNGNS,181801.43,5008.969633,N,01507.844628,E,AAAA,29,0.5,191.5,44.7,,,V*2B
$GNGGA,181801.43,5008.969633,N,01507.844628,E,1,12,0.5,191.5,M,44.7,M,,*73
$GPGSV,4,1,14,10,15,295,35,12,40,236,25,13,20,160,31,15,40,195,33,1*66
$GPGSV,4,2,14,17,43,070,28,19,48,101,27,20,06,262,18,23,12,264,26,1*67
$GPGSV,4,3,14,24,75,291,34,28,16,057,34,01,04,016,,06,00,000,,1*63
$GPGSV,4,4,14,25,04,241,,32,03,324,,1*62
$GLGSV,3,1,09,78,67,320,27,86,16,018,29,77,40,066,17,79,21,274,33,1*7C
$GLGSV,3,2,09,69,35,310,28,88,18,130,29,87,35,092,26,67,08,196,31,1*72
$GLGSV,3,3,09,68,40,240,32,1*4C
$GAGSV,2,1,07,01,36,255,29,04,37,298,28,13,12,116,24,15,21,066,24,7*73
$GAGSV,2,2,07,19,45,216,26,21,84,350,25,27,33,067,27,7*43
$GQGSV,1,1,01,03,04,039,,1*59
$GBGSV,3,1,11,05,18,127,23,08,09,073,26,10,18,061,27,14,30,275,36,1*75
$GBGSV,3,2,11,21,05,201,27,24,23,275,37,26,73,293,33,29,36,078,27,1*78
$GBGSV,3,3,11,30,09,029,34,02,03,106,,13,04,095,,1*4C
$GNGSA,A,3,10,12,13,15,17,19,23,24,28,,,,0.9,0.6,0.7,1*3E
$GNGSA,A,3,69,78,79,86,87,88,,,,,,,0.9,0.6,0.7,2*35
$GNGSA,A,3,01,04,13,15,21,27,,,,,,,0.9,0.6,0.7,3*3E
$GNGSA,A,3,08,14,,,,,,,,,,,0.9,0.6,0.7,4*31
$GNVTG,,T,,M,0.0,N,0.0,K,A*3D
$GNDTM,P90,,0000.000026,S,00000.000000,E,0.974,W84*50
$GNRMC,181803.43,A,5008.969617,N,01507.844372,E,0.0,,161120,1.5,E,A,V*7C
$GNGNS,181803.43,5008.969617,N,01507.844372,E,AAAA,23,0.6,191.4,44.7,,,V*2D
$GNGGA,181803.43,5008.969617,N,01507.844372,E,1,12,0.6,191.4,M,44.7,M,,*7F
$GPGSV,4,1,14,10,15,295,32,12,40,236,28,13,20,160,31,15,40,195,29,1*67
$GPGSV,4,2,14,17,43,070,32,19,48,101,31,20,06,262,18,23,12,264,24,1*69
$GPGSV,4,3,14,24,75,291,33,28,16,057,28,01,04,016,,06,00,000,,1*69
$GPGSV,4,4,14,25,04,241,,32,03,324,,1*62
$GLGSV,3,1,09,78,67,320,28,86,16,018,28,77,40,066,17,79,21,274,33,1*72
$GLGSV,3,2,09,69,35,310,30,88,18,130,31,87,35,092,24,67,08,196,26,1*76
$GLGSV,3,3,09,68,40,240,25,1*4A
$GAGSV,2,1,07,01,36,255,23,04,37,298,28,13,12,116,23,15,21,066,21,7*7B
$GAGSV,2,2,07,19,45,216,20,21,84,350,25,27,33,067,29,7*4B
$GQGSV,1,1,01,03,04,039,22,1*59
$GBGSV,3,1,11,05,18,127,23,08,09,073,26,10,18,061,27,14,30,275,34,1*77
$GBGSV,3,2,11,21,05,201,25,24,23,275,33,26,73,293,32,29,36,078,31,1*78
$GBGSV,3,3,11,30,09,029,36,02,03,106,,13,04,095,,1*4E
$GNGSA,A,3,10,12,13,15,17,19,23,24,28,,,,0.8,0.5,0.6,1*3D
$GNGSA,A,3,67,68,69,78,79,86,87,88,,,,,0.8,0.5,0.6,2*39
$GNGSA,A,3,01,04,13,15,19,21,27,,,,,,0.8,0.5,0.6,3*35
$GNGSA,A,3,08,14,,,,,,,,,,,0.8,0.5,0.6,4*32
$GNVTG,,T,,M,0.0,N,0.0,K,A*3D
$GNDTM,P90,,0000.000026,S,00000.000000,E,0.974,W84*50
$GNRMC,181806.00,A,5008.969480,N,01507.844221,E,0.0,,161120,1.5,E,A,V*75
$GNGNS,181806.00,5008.969480,N,01507.844221,E,AAAA,26,0.5,190.9,44.7,,,V*2E
$GNGGA,181806.00,5008.969480,N,01507.844221,E,1,12,0.5,190.9,M,44.7,M,,*79
$GPGSV,4,1,14,12,40,236,27,13,20,160,30,15,40,195,34,17,43,070,31,1*6B
$GPGSV,4,2,14,19,48,101,27,20,06,262,18,23,12,264,25,24,75,291,29,1*6D
$GPGSV,4,3,14,28,16,057,24,01,04,016,,06,00,000,,10,15,295,,1*60
$GPGSV,4,4,14,25,04,241,,32,03,324,,1*62
$GLGSV,3,1,09,78,67,320,24,86,16,018,24,77,40,066,17,79,21,274,24,1*74
$GLGSV,3,2,09,69,35,310,26,88,18,130,28,87,35,092,30,67,08,196,29,1*73
$GLGSV,3,3,09,68,40,240,26,1*49
$GAGSV,2,1,07,01,36,255,20,04,37,298,23,13,12,116,29,15,21,066,23,7*7B
$GAGSV,2,2,07,19,45,215,24,21,84,350,26,27,33,067,26,7*40
$GQGSV,1,1,01,03,04,039,24,1*5F
$GBGSV,3,1,11,05,18,127,23,08,09,073,26,10,18,061,27,14,30,275,29,1*7B
$GBGSV,3,2,11,21,05,201,27,24,23,275,32,26,73,293,26,29,36,078,28,1*76
$GBGSV,3,3,11,30,09,029,29,02,03,106,,13,04,095,,1*40
$GNGSA,A,3,10,12,13,15,17,19,23,24,28,,,,0.8,0.5,0.7,1*3C
$GNGSA,A,3,67,68,69,78,79,86,87,88,,,,,0.8,0.5,0.7,2*38
$GNGSA,A,3,01,04,13,15,19,21,27,,,,,,0.8,0.5,0.7,3*34
$GNGSA,A,3,14,,,,,,,,,,,,0.8,0.5,0.7,4*3B
$GNVTG,,T,,M,0.0,N,0.0,K,A*3D
$GNDTM,P90,,0000.000026,S,00000.000000,E,0.974,W84*50
$GNRMC,181810.00,A,5008.969157,N,01507.844180,E,0.0,,161120,1.5,E,A,V*75
$GNGNS,181810.00,5008.969157,N,01507.844180,E,AAAA,25,0.5,190.6,44.7,,,V*22
$GNGGA,181810.00,5008.969157,N,01507.844180,E,1,12,0.5,190.6,M,44.7,M,,*76
$GPGSV,4,1,14,10,15,295,25,12,40,236,32,13,20,160,29,15,40,195,32,1*69
$GPGSV,4,2,14,17,43,070,32,19,48,101,34,20,06,262,26,23,12,264,29,1*6C
$GPGSV,4,3,14,24,75,291,32,28,16,057,29,01,04,016,,06,00,000,,1*69
$GPGSV,4,4,14,25,04,241,,32,03,324,,1*62
$GLGSV,3,1,09,78,67,320,29,86,16,018,28,77,40,066,17,79,21,274,24,1*75
$GLGSV,3,2,09,69,35,310,22,88,18,130,23,87,35,092,28,67,08,196,24,1*78
$GLGSV,3,3,09,68,40,240,29,1*46
$GAGSV,2,1,07,01,36,255,20,04,37,298,27,13,12,116,23,15,21,066,26,7*70
$GAGSV,2,2,07,19,45,215,25,21,84,350,26,27,33,067,26,7*41
$GQGSV,1,1,01,03,04,039,24,1*5F
$GBGSV,3,1,11,05,18,127,23,08,09,073,26,10,18,061,26,14,30,275,20,1*73
$GBGSV,3,2,11,21,05,201,30,24,23,275,26,26,73,293,33,29,36,078,31,1*79
$GBGSV,3,3,11,30,09,029,35,02,03,106,,13,04,095,,1*4D
$GNGSA,A,3,10,12,13,15,17,19,20,23,24,28,,,0.8,0.5,0.6,1*3F
$GNGSA,A,3,67,68,69,78,79,86,87,88,,,,,0.8,0.5,0.6,2*39
$GNGSA,A,3,01,04,13,15,19,21,27,,,,,,0.8,0.5,0.6,3*35
$GNGSA,A,3,10,14,,,,,,,,,,,0.8,0.5,0.6,4*3B
$GNVTG,,T,,M,0.0,N,0.0,K,A*3D
$GNDTM,P90,,0000.000026,S,00000.000000,E,0.974,W84*50
$GNRMC,181814.00,A,5008.968231,N,01507.843985,E,0.0,,161120,1.5,E,A,V*79
$GNGNS,181814.00,5008.968231,N,01507.843985,E,AAAA,27,0.5,190.9,44.7,,,V*23
$GNGGA,181814.00,5008.968231,N,01507.843985,E,1,12,0.5,190.9,M,44.7,M,,*75
$GPGSV,4,1,14,10,15,295,23,12,40,236,31,13,20,160,29,15,40,195,32,1*6C
$GPGSV,4,2,14,17,43,070,30,19,48,101,25,20,06,262,26,23,12,264,20,1*67
$GPGSV,4,3,14,24,75,291,32,28,16,057,25,01,04,016,,06,00,000,,1*65
$GPGSV,4,4,14,25,04,241,,32,03,324,,1*62
$GLGSV,3,1,09,78,67,320,27,86,16,018,22,77,40,066,16,79,21,274,31,1*74
$GLGSV,3,2,09,69,35,310,22,88,18,130,27,87,35,092,27,67,08,196,25,1*72
$GLGSV,3,3,09,68,40,240,31,1*4F
$GAGSV,2,1,07,01,36,255,30,04,37,298,27,13,12,116,17,15,21,066,24,7*74
$GAGSV,2,2,07,19,45,215,27,21,84,350,24,27,33,067,23,7*44
$GQGSV,1,1,01,03,04,039,24,1*5F
$GBGSV,3,1,11,08,09,073,19,10,18,061,26,14,30,275,22,21,05,201,29,1*7A
$GBGSV,3,2,11,24,23,275,22,26,73,293,34,29,36,078,26,30,09,029,26,1*7F
$GBGSV,3,3,11,02,03,106,,05,18,127,,13,04,095,,1*42
$GNGSA,A,3,10,12,13,15,17,19,20,23,24,28,,,0.8,0.5,0.6,1*3F
$GNGSA,A,3,67,68,69,77,78,79,86,87,88,,,,0.8,0.5,0.6,2*39
$GNGSA,A,3,01,13,15,19,21,27,,,,,,,0.8,0.5,0.6,3*31
$GNGSA,A,3,08,10,14,,,,,,,,,,0.8,0.5,0.6,4*33
$GNVTG,207.6,T,207.6,M,2.4,N,4.5,K,A*3A
$GNDTM,P90,,0000.000026,S,00000.000000,E,0.974,W84*50
$GNRMC,181818.00,A,5008.963945,N,01507.840229,E,2.4,207.6,161120,1.5,E,A,V*53
$GNGNS,181818.00,5008.963945,N,01507.840229,E,AAAA,28,0.5,189.9,44.7,,,V*25
$GNGGA,181818.00,5008.963945,N,01507.840229,E,1,12,0.5,189.9,M,44.7,M,,*7C
$GPGSV,4,1,14,10,15,295,29,12,40,236,24,13,20,160,30,15,40,195,30,1*68
$GPGSV,4,2,14,17,43,070,29,19,48,101,28,20,06,262,26,23,12,264,20,1*62
$GPGSV,4,3,14,24,75,291,27,28,16,057,30,01,04,016,,06,00,000,,1*65
$GPGSV,4,4,14,25,04,241,,32,03,324,,1*62
$GLGSV,3,1,09,78,67,320,22,86,16,018,22,77,40,066,16,79,21,274,22,1*73
$GLGSV,3,2,09,69,35,310,20,88,18,130,25,87,35,092,24,67,08,196,23,1*77
$GLGSV,3,3,09,68,40,240,25,1*4A
$GAGSV,2,1,07,01,36,255,23,04,37,298,24,13,12,116,17,15,21,066,23,7*72
$GAGSV,2,2,07,19,45,215,22,21,84,350,26,27,33,067,28,7*48
$GQGSV,1,1,01,03,04,039,24,1*5F
$GBGSV,3,1,11,08,09,073,19,10,18,061,24,14,30,275,24,21,05,201,29,1*7E
$GBGSV,3,2,11,24,23,275,24,26,73,293,26,29,36,078,27,30,09,029,37,1*7B
$GBGSV,3,3,11,02,03,106,,05,18,127,,13,04,095,,1*42
$GNGSA,A,3,10,12,13,15,17,19,23,24,28,,,,0.9,0.6,0.7,1*3E
$GNGSA,A,3,67,68,69,78,79,87,88,,,,,,0.9,0.6,0.7,2*34
$GNGSA,A,3,01,04,13,15,19,21,27,,,,,,0.9,0.6,0.7,3*36
$GNGSA,A,3,10,14,,,,,,,,,,,0.9,0.6,0.7,4*38
$GNVTG,221.3,T,221.3,M,2.5,N,4.6,K,A*38
$GNDTM,P90,,0000.000026,S,00000.000000,E,0.974,W84*50
$GNRMC,181822.00,A,5008.959962,N,01507.838812,E,2.5,221.3,161120,1.5,E,A,V*5B
$GNGNS,181822.00,5008.959962,N,01507.838812,E,AAAA,25,0.6,190.1,44.7,,,V*23
$GNGGA,181822.00,5008.959962,N,01507.838812,E,1,12,0.6,190.1,M,44.7,M,,*77
$GPGSV,4,1,14,01,04,016,20,10,15,295,23,12,40,236,21,13,20,160,22,1*6A
$GPGSV,4,2,14,15,40,195,29,17,43,070,25,19,48,101,27,20,06,262,15,1*67
$GPGSV,4,3,14,23,12,264,20,24,75,291,24,28,16,057,26,06,00,000,,1*63
$GPGSV,4,4,14,25,04,241,,32,03,324,,1*62
$GLGSV,3,1,09,78,67,320,22,86,16,018,25,77,40,066,16,79,21,274,22,1*74
$GLGSV,3,2,09,69,35,310,19,88,18,130,29,87,35,092,23,67,08,196,23,1*76
$GLGSV,3,3,09,68,40,240,25,1*4A
$GAGSV,2,1,07,01,36,255,23,04,37,298,24,13,12,116,17,15,21,066,22,7*73
$GAGSV,2,2,07,19,45,215,18,21,84,350,22,27,33,067,23,7*4E
$GQGSV,1,1,01,03,04,039,24,1*5F
$GBGSV,3,1,11,08,09,073,19,10,18,061,25,14,30,275,24,21,05,201,27,1*71
$GBGSV,3,2,11,24,23,275,24,26,73,293,25,29,36,078,26,30,09,029,34,1*7A
$GBGSV,3,3,11,02,03,106,,05,18,127,,13,04,095,,1*42
$GNGSA,A,3,01,10,12,13,15,17,19,20,24,28,,,0.8,0.5,0.6,1*3F
$GNGSA,A,3,67,69,78,79,86,87,88,,,,,,0.8,0.5,0.6,2*37
$GNGSA,A,3,01,04,13,15,19,21,27,,,,,,0.8,0.5,0.6,3*35
$GNGSA,A,3,10,14,,,,,,,,,,,0.8,0.5,0.6,4*3B
$GNVTG,218.0,T,218.0,M,2.7,N,5.0,K,A*3D
$GNDTM,P90,,0000.000026,S,00000.000000,E,0.974,W84*50
$GNRMC,181826.00,A,5008.952448,N,01507.833109,E,2.7,218.0,161120,1.5,E,A,V*52
$GNGNS,181826.00,5008.952448,N,01507.833109,E,AAAA,26,0.5,189.2,44.7,,,V*2A
$GNGGA,181826.00,5008.952448,N,01507.833109,E,1,12,0.5,189.2,M,44.7,M,,*7D
$GPGSV,4,1,14,01,04,016,19,10,15,295,26,12,40,236,24,13,20,160,23,1*61
$GPGSV,4,2,14,15,40,195,27,17,43,070,31,19,48,101,27,20,06,262,15,1*6C
$GPGSV,4,3,14,23,12,264,16,24,75,291,27,28,16,057,28,06,00,000,,1*6B
$GPGSV,4,4,14,25,04,241,,32,03,324,,1*62
$GLGSV,3,1,09,78,67,320,24,86,16,018,24,77,40,066,16,79,21,274,22,1*73
$GLGSV,3,2,09,69,35,310,22,88,18,130,26,87,35,092,26,67,08,196,23,1*74
$GLGSV,3,3,09,68,40,240,21,1*4E
$GAGSV,2,1,07,01,36,255,23,04,37,298,18,13,12,116,20,15,21,066,25,7*7F
$GAGSV,2,2,07,19,45,215,18,21,84,350,23,27,33,067,25,7*49
$GQGSV,1,1,01,03,04,039,24,1*5F
$GBGSV,3,1,11,08,09,073,19,10,18,061,26,14,30,275,24,21,05,201,23,1*76
$GBGSV,3,2,11,24,23,275,24,26,73,293,23,29,36,078,31,30,09,029,33,1*7D
$GBGSV,3,3,11,02,03,106,,05,18,127,,13,04,095,,1*42
$GNGSA,A,3,01,10,12,13,15,17,19,23,24,28,,,0.8,0.5,0.6,1*3C
$GNGSA,A,3,67,68,69,78,86,87,88,,,,,,0.8,0.5,0.6,2*37
$GNGSA,A,3,04,13,15,21,27,,,,,,,,0.8,0.5,0.6,3*3C
$GNGSA,A,3,10,,,,,,,,,,,,0.8,0.5,0.6,4*3E
$GNVTG,,T,,M,0.0,N,0.0,K,A*3D
$GNDTM,P90,,0000.000026,S,00000.000000,E,0.974,W84*50
$GNRMC,181830.00,A,5008.952389,N,01507.833307,E,0.0,,161120,1.5,E,A,V*73
$GNGNS,181830.00,5008.952389,N,01507.833307,E,AAAA,23,0.5,189.2,44.7,,,V*2E
$GNGGA,181830.00,5008.952389,N,01507.833307,E,1,12,0.5,189.2,M,44.7,M,,*7C
$GPGSV,4,1,14,01,04,016,19,10,15,295,26,12,40,236,28,13,20,160,30,1*6F
$GPGSV,4,2,14,15,40,195,29,17,43,070,27,19,48,101,28,20,06,262,15,1*6A
$GPGSV,4,3,14,23,12,264,16,24,75,291,28,28,16,057,31,06,00,000,,1*6C
$GPGSV,4,4,14,25,04,241,,32,03,324,,1*62
$GLGSV,3,1,09,78,67,320,24,86,16,018,24,77,40,066,16,79,21,274,16,1*74
$GLGSV,3,2,09,69,35,310,19,88,18,130,26,87,35,092,25,67,08,196,27,1*7B
$GLGSV,3,3,09,68,40,240,24,1*4B
$GAGSV,2,1,07,01,36,255,17,04,37,298,18,13,12,116,20,15,21,066,26,7*7B
$GAGSV,2,2,07,19,45,215,18,21,84,350,24,27,33,067,26,7*4D
$GBGSV,3,1,11,08,09,073,19,10,18,061,25,14,30,275,19,21,05,201,24,1*7C
$GBGSV,3,2,11,24,23,275,18,26,73,293,29,29,36,078,30,30,09,029,39,1*73
$GBGSV,3,3,11,02,03,106,,05,18,127,,13,04,095,,1*42
$GNGSA,A,3,01,10,12,13,15,17,19,23,24,28,,,0.8,0.5,0.6,1*3C
$GNGSA,A,3,67,68,69,78,79,86,87,88,,,,,0.8,0.5,0.6,2*39
$GNGSA,A,3,01,13,15,19,21,27,,,,,,,0.8,0.5,0.6,3*31
$GNGSA,A,3,10,14,,,,,,,,,,,0.8,0.5,0.6,4*3B
$GNVTG,,T,,M,0.0,N,0.0,K,A*3D
$GNDTM,P90,,0000.000026,S,00000.000000,E,0.974,W84*50
$GNRMC,181834.00,A,5008.951869,N,01507.832806,E,0.0,,161120,1.5,E,A,V*7A
$GNGNS,181834.00,5008.951869,N,01507.832806,E,AAAA,26,0.5,190.2,44.7,,,V*2A
$GNGGA,181834.00,5008.951869,N,01507.832806,E,1,12,0.5,190.2,M,44.7,M,,*7D
$GPGSV,4,1,14,01,04,016,25,10,15,295,26,12,40,236,26,13,20,160,24,1*6B
$GPGSV,4,2,14,15,40,195,29,17,43,070,28,19,48,101,29,20,06,262,15,1*64
$GPGSV,4,3,14,23,12,264,16,24,75,291,27,28,16,057,28,06,00,000,,1*6B
$GPGSV,4,4,14,25,04,241,,32,03,324,,1*62
$GLGSV,3,1,09,78,67,320,26,86,16,018,28,79,21,274,16,69,35,310,19,1*7A
$GLGSV,3,2,09,88,18,130,22,87,35,092,21,67,08,196,26,68,40,240,20,1*77
$GLGSV,3,3,09,77,40,066,,1*45
$GAGSV,2,1,07,01,36,255,17,04,37,298,18,13,12,116,20,15,21,066,23,7*7E
$GAGSV,2,2,07,19,45,215,18,21,84,350,22,27,33,067,27,7*4A
$GBGSV,3,1,11,10,18,061,23,14,30,275,19,21,05,201,26,24,23,275,18,1*7B
$GBGSV,3,2,11,26,73,293,26,29,36,078,27,30,09,029,37,02,03,106,,1*7C
$GBGSV,3,3,11,05,18,127,,08,09,073,,13,04,095,,1*41
$GNGSA,A,3,01,12,13,15,17,19,24,28,,,,,0.9,0.6,0.7,1*3F
$GNGSA,A,3,67,68,69,78,86,87,88,,,,,,0.9,0.6,0.7,2*34
$GNGSA,A,3,15,19,21,27,,,,,,,,,0.9,0.6,0.7,3*31
$GNGSA,A,3,10,14,,,,,,,,,,,0.9,0.6,0.7,4*38
$GNVTG,216.6,T,216.6,M,4.4,N,8.2,K,A*37
$GNDTM,P90,,0000.000026,S,00000.000000,E,0.974,W84*50
$GNRMC,181838.00,A,5008.950158,N,01507.831018,E,4.4,216.6,161120,1.5,E,A,V*55
$GNGNS,181838.00,5008.950158,N,01507.831018,E,AAAA,21,0.6,191.1,44.7,,,V*2E
$GNGGA,181838.00,5008.950158,N,01507.831018,E,1,12,0.6,191.1,M,44.7,M,,*7E
$GPGSV,4,1,14,01,04,016,25,10,15,295,26,12,40,236,31,13,20,160,31,1*69
$GPGSV,4,2,14,15,40,195,29,17,43,070,29,19,48,101,27,20,06,262,15,1*6B
$GPGSV,4,3,14,23,12,264,16,24,75,291,29,28,16,057,26,06,00,000,,1*6B
$GPGSV,4,4,14,25,04,241,,32,03,324,,1*62
$GLGSV,3,1,09,78,67,320,28,86,16,018,26,79,21,274,16,69,35,310,19,1*7A
$GLGSV,3,2,09,88,18,130,28,87,35,092,22,67,08,196,24,68,40,240,28,1*74
$GLGSV,3,3,09,77,40,066,,1*45
$GAGSV,2,1,07,01,36,255,28,04,37,298,17,13,12,116,17,15,21,066,25,7*7F
$GAGSV,2,2,07,19,45,215,19,21,84,350,24,27,33,067,22,7*48
$GBGSV,3,1,11,10,18,061,24,14,30,275,19,21,05,201,26,26,73,293,27,1*7F
$GBGSV,3,2,11,29,36,078,26,30,09,029,39,02,03,106,,05,18,127,,1*77
$GBGSV,3,3,11,08,09,073,,13,04,095,,24,23,275,,1*4E
$GNGSA,A,3,01,12,13,15,17,19,24,28,,,,,0.9,0.6,0.7,1*3F
$GNGSA,A,3,67,68,78,86,87,88,,,,,,,0.9,0.6,0.7,2*3B
$GNGSA,A,3,01,04,13,15,19,21,27,,,,,,0.9,0.6,0.7,3*36
$GNGSA,A,3,10,,,,,,,,,,,,0.9,0.6,0.7,4*3D
$GNVTG,191.1,T,191.1,M,2.1,N,3.9,K,A*34
$GNDTM,P90,,0000.000026,S,00000.000000,E,0.974,W84*50
$GNRMC,181842.00,A,5008.945982,N,01507.827149,E,2.1,191.1,161120,1.5,E,A,V*59
$GNGNS,181842.00,5008.945982,N,01507.827149,E,AAAA,22,0.6,190.3,44.7,,,V*2A
$GNGGA,181842.00,5008.945982,N,01507.827149,E,1,12,0.6,190.3,M,44.7,M,,*79
$GPGSV,4,1,14,01,04,016,25,10,15,295,27,12,40,236,28,13,20,160,33,1*62
$GPGSV,4,2,14,15,40,195,27,17,43,070,24,19,48,101,26,23,12,264,23,1*6C
$GPGSV,4,3,14,24,75,291,26,28,16,057,24,06,00,000,,20,06,262,,1*61
$GPGSV,4,4,14,25,04,241,,32,03,324,,1*62
$GLGSV,3,1,09,78,67,320,22,86,16,018,24,79,21,274,25,69,35,310,13,1*78
$GLGSV,3,2,09,88,18,130,30,87,35,092,27,67,08,196,22,68,40,240,24,1*72
$GLGSV,3,3,09,77,40,066,,1*45
$GAGSV,2,1,07,01,36,255,25,04,37,298,20,13,12,116,17,15,21,066,20,7*73
$GAGSV,2,2,07,19,45,215,19,21,84,350,19,27,33,067,23,7*47
$GBGSV,3,1,11,10,18,061,22,14,30,275,18,21,05,201,29,26,73,293,25,1*75
$GBGSV,3,2,11,29,36,078,25,30,09,029,27,02,03,106,,05,18,127,,1*7B
$GBGSV,3,3,11,08,09,073,,13,04,095,,24,23,275,,1*4E
$GNGSA,A,3,10,12,13,15,17,19,23,24,28,,,,0.8,0.5,0.7,1*3C
$GNGSA,A,3,67,68,69,78,79,86,87,88,,,,,0.8,0.5,0.7,2*38
$GNGSA,A,3,01,04,13,15,19,21,27,,,,,,0.8,0.5,0.7,3*34
$GNGSA,A,3,10,14,,,,,,,,,,,0.8,0.5,0.7,4*3A
$GNVTG,179.8,T,179.8,M,2.9,N,5.4,K,A*37
$GNDTM,P90,,0000.000026,S,00000.000000,E,0.974,W84*50
$GNRMC,181846.00,A,5008.942218,N,01507.824116,E,2.9,179.8,161120,1.5,E,A,V*5C
$GNGNS,181846.00,5008.942218,N,01507.824116,E,AAAA,26,0.5,190.5,44.7,,,V*29
$GNGGA,181846.00,5008.942218,N,01507.824116,E,1,12,0.5,190.5,M,44.7,M,,*7E
$GPGSV,4,1,14,01,04,016,17,10,15,295,26,12,40,237,25,13,19,160,32,1*65
$GPGSV,4,2,14,15,39,195,28,17,43,070,29,19,48,101,28,23,12,264,23,1*6E
$GPGSV,4,3,14,24,76,291,29,28,15,057,22,06,00,000,,20,06,262,,1*68
$GPGSV,4,4,14,25,04,241,,32,03,323,,1*65
$GLGSV,3,1,09,78,67,320,22,86,16,018,21,79,21,274,21,69,35,310,21,1*78
$GLGSV,3,2,09,88,18,130,26,87,35,092,30,67,08,196,24,68,40,240,25,1*74
$GLGSV,3,3,09,77,39,066,,1*4B
$GAGSV,2,1,07,01,36,255,20,04,37,298,21,13,13,116,17,15,21,066,20,7*76
$GAGSV,2,2,07,19,44,215,19,21,84,352,22,27,33,067,21,7*4E
$GBGSV,3,1,11,10,18,061,22,14,30,275,23,21,05,201,26,26,73,293,27,1*70
$GBGSV,3,2,11,29,36,077,29,30,09,028,30,02,03,106,,05,18,127,,1*7F
$GBGSV,3,3,11,08,09,073,,13,04,095,,24,23,275,,1*4E
$GNGSA,A,3,01,10,12,13,15,17,19,23,24,28,,,0.8,0.5,0.6,1*3C
$GNGSA,A,3,67,68,69,78,79,86,87,88,,,,,0.8,0.5,0.6,2*39
$GNGSA,A,3,01,04,13,19,21,27,,,,,,,0.8,0.5,0.6,3*31
$GNGSA,A,3,14,,,,,,,,,,,,0.8,0.5,0.6,4*3A
$GNVTG,183.8,T,183.8,M,1.8,N,3.3,K,A*34
$GNDTM,P90,,0000.000026,S,00000.000000,E,0.974,W84*50
$GNRMC,181850.00,A,5008.938909,N,01507.823211,E,1.8,183.8,161120,1.5,E,A,V*59
$GNGNS,181850.00,5008.938909,N,01507.823211,E,AAAA,25,0.5,189.0,44.7,,,V*25
$GNGGA,181850.00,5008.938909,N,01507.823211,E,1,12,0.5,189.0,M,44.7,M,,*71
$GPGSV,4,1,14,01,04,016,19,10,15,295,26,12,40,237,26,13,19,160,34,1*6E
$GPGSV,4,2,14,15,39,195,27,17,43,070,31,19,48,101,29,23,12,264,23,1*69
$GPGSV,4,3,14,24,76,291,29,28,15,057,21,06,00,000,,20,06,262,,1*6B
$GPGSV,4,4,14,25,04,241,,32,03,323,,1*65
$GLGSV,3,1,09,78,67,320,23,86,16,018,23,79,21,274,21,69,35,310,22,1*78
$GLGSV,3,2,09,88,18,130,31,87,35,092,28,67,08,196,23,68,40,240,19,1*73
$GLGSV,3,3,09,77,39,066,,1*4B
$GAGSV,2,1,07,01,36,255,21,04,37,298,24,13,13,116,17,15,21,066,19,7*78
$GAGSV,2,2,07,19,44,215,20,21,84,352,24,27,33,067,24,7*47
$GBGSV,3,1,11,05,18,127,26,10,18,061,22,14,30,275,23,21,05,201,32,1*74
$GBGSV,3,2,11,26,73,293,30,29,36,077,28,30,09,028,36,02,03,106,,1*7B
$GBGSV,3,3,11,08,09,073,,13,04,095,,24,23,275,,1*4E
$GNGSA,A,3,01,10,12,13,15,17,19,24,28,,,,0.8,0.5,0.6,1*3D
$GNGSA,A,3,67,68,69,78,79,86,87,88,,,,,0.8,0.5,0.6,2*39
$GNGSA,A,3,01,04,13,15,19,21,27,,,,,,0.8,0.5,0.6,3*35
$GNGSA,A,3,14,,,,,,,,,,,,0.8,0.5,0.6,4*3A
$GNVTG,206.7,T,206.7,M,4.3,N,7.9,K,A*34
$GNDTM,P90,,0000.000026,S,00000.000000,E,0.974,W84*50
$GNRMC,181854.00,A,5008.934318,N,01507.820593,E,4.3,206.7,161120,1.5,E,A,V*5A
$GNGNS,181854.00,5008.934318,N,01507.820593,E,AAAA,25,0.5,188.9,44.7,,,V*21
$GNGGA,181854.00,5008.934318,N,01507.820593,E,1,12,0.5,188.9,M,44.7,M,,*75
$GPGSV,4,1,14,01,04,016,19,10,15,295,26,12,40,237,27,13,19,160,31,1*6A
$GPGSV,4,2,14,15,39,195,31,17,43,070,26,19,48,101,28,23,12,264,23,1*69
$GPGSV,4,3,14,24,76,291,29,28,15,057,30,06,00,000,,20,06,262,,1*6B
$GPGSV,4,4,14,25,04,241,,32,03,323,,1*65
$GLGSV,3,1,09,78,67,320,24,86,16,018,23,79,21,274,21,69,35,310,22,1*7F
$GLGSV,3,2,09,88,18,130,29,87,35,092,28,67,08,196,29,68,40,240,22,1*78
$GLGSV,3,3,09,77,39,066,,1*4B
$GAGSV,2,1,07,01,36,255,21,04,37,298,21,13,13,116,23,15,21,066,26,7*76
$GAGSV,2,2,07,19,44,215,19,21,84,352,20,27,33,067,26,7*4B
$GBGSV,3,1,11,05,18,127,26,08,09,073,19,10,18,061,25,14,30,275,23,1*7A
$GBGSV,3,2,11,21,05,201,30,26,73,293,25,29,36,077,26,30,09,028,27,1*71
$GBGSV,3,3,11,02,03,106,,13,04,095,,24,23,275,,1*4D
$GNGSA,A,3,01,10,12,13,15,17,19,24,28,,,,0.8,0.5,0.7,1*3C
$GNGSA,A,3,67,68,69,78,86,87,88,,,,,,0.8,0.5,0.7,2*36
$GNGSA,A,3,01,04,13,15,19,21,27,,,,,,0.8,0.5,0.7,3*34
$GNGSA,A,3,08,10,,,,,,,,,,,0.8,0.5,0.7,4*37
$GNVTG,198.4,T,198.4,M,2.4,N,4.4,K,A*3B
$GNDTM,P90,,0000.000026,S,00000.000000,E,0.974,W84*50
$GNRMC,181858.00,A,5008.931374,N,01507.817883,E,2.4,198.4,161120,1.5,E,A,V*57
$GNGNS,181858.00,5008.931374,N,01507.817883,E,AAAA,25,0.5,189.7,44.7,,,V*25
$GNGGA,181858.00,5008.931374,N,01507.817883,E,1,12,0.5,189.7,M,44.7,M,,*71
$GPGSV,4,1,14,01,04,016,19,10,15,295,26,12,40,237,24,13,19,160,32,1*6A
$GPGSV,4,2,14,15,39,195,28,17,43,070,31,19,48,101,29,23,12,264,23,1*66
$GPGSV,4,3,14,24,76,291,31,28,15,057,26,06,00,000,,20,06,262,,1*65
$GPGSV,4,4,14,25,04,241,,32,03,323,,1*65
$GLGSV,3,1,09,78,67,320,25,86,16,018,25,79,21,274,13,69,35,310,22,1*79
$GLGSV,3,2,09,88,18,130,27,87,35,092,29,67,08,196,28,68,40,240,22,1*76
$GLGSV,3,3,09,77,39,066,,1*4B
$GAGSV,2,1,07,01,36,255,17,04,37,298,21,13,13,116,23,15,21,066,23,7*76
$GAGSV,2,2,07,19,44,215,19,21,84,352,25,27,33,067,29,7*41
$GBGSV,3,1,11,05,18,127,26,08,09,073,23,10,18,061,26,14,30,275,16,1*76
$GBGSV,3,2,11,21,05,201,29,26,73,293,27,29,36,077,28,30,09,028,35,1*76
$GBGSV,3,3,11,02,03,106,,13,04,095,,24,23,275,,1*4D
$GNGSA,A,3,01,12,13,15,17,19,24,28,,,,,0.9,0.6,0.7,1*3F
$GNGSA,A,3,67,68,78,79,86,87,88,,,,,,0.9,0.6,0.7,2*35
$GNGSA,A,3,01,13,15,19,21,27,,,,,,,0.9,0.6,0.7,3*32
$GNGSA,A,3,08,10,14,,,,,,,,,,0.9,0.6,0.7,4*30
$GNVTG,192.6,T,192.6,M,2.7,N,5.0,K,A*3D
$GNDTM,P90,,0000.000026,S,00000.000000,E,0.974,W84*50
$GNRMC,181902.00,A,5008.927955,N,01507.816588,E,2.7,192.6,161120,1.5,E,A,V*5B
$GNGNS,181902.00,5008.927955,N,01507.816588,E,AAAA,24,0.6,191.2,44.7,,,V*2C
$GNGGA,181902.00,5008.927955,N,01507.816588,E,1,12,0.6,191.2,M,44.7,M,,*79
$GPGSV,4,1,14,01,04,016,19,10,15,295,26,12,40,237,29,13,19,160,30,1*65
$GPGSV,4,2,14,15,39,195,27,17,43,070,32,19,48,101,30,23,12,264,20,1*61
$GPGSV,4,3,14,24,76,291,27,28,15,057,31,06,00,000,,20,06,262,,1*64
$GPGSV,4,4,14,25,04,241,,32,03,323,,1*65
$GLGSV,3,1,09,78,67,320,24,86,16,018,27,79,21,274,24,69,35,310,17,1*78
$GLGSV,3,2,09,88,18,130,24,87,35,092,28,67,08,196,25,68,40,240,27,1*7C
